city,city_ascii,lat,lng,country,iso2,iso3,admin_name,capital,population,id,Continent,oecd_class
Lae,Lae,-6.7303,147.0008,Papua New Guinea,PG,PNG,Morobe,admin,193000.0,1598466091,Oceania,small_urban
Suva,Suva,-18.1416,178.4419,Fiji,FJ,FJI,Rewa,primary,185913.0,1242615095,Oceania,small_urban
Nouméa,Noumea,-22.2758,166.458,New Caledonia,NC,NCL,Province Sud,primary,182341.0,1540958092,Oceania,small_urban
Geelong,Geelong,-38.15,144.35,Australia,AU,AUS,Victoria,,180239.0,1036870987,Oceania,small_urban
Townsville,Townsville,-19.25,146.8167,Australia,AU,AUS,Queensland,,173724.0,1036500020,Oceania,small_urban
Tauranga,Tauranga,-37.6833,176.1667,New Zealand,NZ,NZL,Bay of Plenty,,151300.0,1554759867,Oceania,small_urban
Cairns,Cairns,-16.92,145.78,Australia,AU,AUS,Queensland,,146778.0,1036016939,Oceania,small_urban
Darwin,Darwin,-12.4381,130.8411,Australia,AU,AUS,Northern Territory,admin,139902.0,1036497565,Oceania,small_urban
Sale,Sale,53.424,-2.322,United Kingdom,GB,GBR,Trafford,,134022.0,1826016049,Oceania,small_urban
Lincoln,Lincoln,53.2283,-0.5389,United Kingdom,GB,GBR,Lincolnshire,,130200.0,1826312785,Oceania,small_urban
Maina,Maina,13.4692,144.7332,Guam,GU,GUM,,,122411.0,1316874021,Oceania,small_urban
Ballarat,Ballarat,-37.5608,143.8475,Australia,AU,AUS,Victoria,,116201.0,1036567186,Oceania,small_urban
Toowoomba,Toowoomba,-27.5667,151.95,Australia,AU,AUS,Queensland,,108398.0,1036765315,Oceania,small_urban
Lower Hutt,Lower Hutt,-41.2167,174.9167,New Zealand,NZ,NZL,Wellington,,103400.0,1554623632,Oceania,small_urban
Bendigo,Bendigo,-36.75,144.2667,Australia,AU,AUS,Victoria,,103034.0,1036537913,Oceania,small_urban
Mandurah,Mandurah,-32.5289,115.7231,Australia,AU,AUS,Western Australia,,90306.0,1036773118,Oceania,small_urban
Albany,Albany,31.5776,-84.1762,United States,US,USA,Georgia,,83447.0,1840013864,Oceania,small_urban
Launceston,Launceston,-41.4419,147.145,Australia,AU,AUS,Tasmania,,80943.0,1036170383,Oceania,small_urban
Somerville,Somerville,42.3908,-71.1014,United States,US,USA,Massachusetts,,80464.0,1840003123,Oceania,small_urban
Melton,Melton,-37.6833,144.5833,Australia,AU,AUS,Victoria,,76346.0,1036007778,Oceania,small_urban
Palmerston North,Palmerston North,-40.355,175.6117,New Zealand,NZ,NZL,Manawatu-Wanganui,admin,76236.0,1554138183,Oceania,small_urban
Tamworth,Tamworth,52.633,-1.695,United Kingdom,GB,GBR,Staffordshire,,73924.0,1826336439,Oceania,small_urban
Mackay,Mackay,-21.1411,149.1858,Australia,AU,AUS,Queensland,,72900.0,1036507374,Oceania,small_urban
Bunbury,Bunbury,-33.3272,115.6369,Australia,AU,AUS,Western Australia,,71090.0,1036561011,Oceania,small_urban
Nadi,Nadi,-17.8,177.4167,Fiji,FJ,FJI,Ba,,71048.0,1242357822,Oceania,small_urban
Bundaberg,Bundaberg,-24.8661,152.3494,Australia,AU,AUS,Queensland,,70540.0,1036377333,Oceania,small_urban
Queenstown,Queenstown,-31.9,26.8833,South Africa,ZA,ZAF,Eastern Cape,,68872.0,1710110028,Oceania,small_urban
Torquay,Torquay,50.47,-3.53,United Kingdom,GB,GBR,Torbay,,65245.0,1826982921,Oceania,small_urban
Popondetta,Popondetta,-8.7656,148.2347,Papua New Guinea,PG,PNG,Northern,admin,65000.0,1598887925,Oceania,small_urban
Rockhampton,Rockhampton,-23.3781,150.5136,Australia,AU,AUS,Queensland,,63151.0,1036768986,Oceania,small_urban
Napier,Napier,-39.4903,176.9178,New Zealand,NZ,NZL,Hawke’s Bay,admin,62241.0,1554064936,Oceania,small_urban
Nausori,Nausori,-18.0244,178.5454,Fiji,FJ,FJI,Tailevu,,57882.0,1242640119,Oceania,small_urban
Hervey Bay,Hervey Bay,-25.29,152.84,Australia,AU,AUS,Queensland,,57722.0,1036833938,Oceania,small_urban
New Plymouth,New Plymouth,-39.0578,174.0742,New Zealand,NZ,NZL,Taranaki,,57600.0,1554939405,Oceania,small_urban
Albany,Albany,44.6272,-123.0965,United States,US,USA,Oregon,,56348.0,1840018605,Oceania,small_urban
Mendi,Mendi,-6.1478,143.6572,Papua New Guinea,PG,PNG,Southern Highlands,admin,56055.0,1598467297,Oceania,small_urban
Porirua,Porirua,-41.1333,174.85,New Zealand,NZ,NZL,Wellington,,55218.0,1554561880,Oceania,small_urban
Rotorua,Rotorua,-38.1378,176.2514,New Zealand,NZ,NZL,Bay of Plenty,,54204.0,1554000379,Oceania,small_urban
Lautoka,Lautoka,-17.6242,177.4528,Fiji,FJ,FJI,Ba,,52220.0,1242457077,Oceania,small_urban
Horsham,Horsham,51.062,-0.325,United Kingdom,GB,GBR,West Sussex,,50934.0,1826018789,Oceania,small_urban
Whangarei,Whangarei,-35.725,174.3236,New Zealand,NZ,NZL,Northland,admin,50784.0,1554000636,Oceania,small_urban
Lincoln,Lincoln,38.8774,-121.2937,United States,US,USA,California,,50131.0,1840020231,Oceania,small_urban
Manolo Fortich,Manolo Fortich,8.3675,124.8656,Philippines,PH,PHL,Bukidnon,,113200.0,1608811201,Asia,small_urban
Tekkeköy,Tekkekoy,41.2125,36.4569,Turkey,TR,TUR,Samsun,minor,52258.0,1792843617,Asia,small_urban
Bafra,Bafra,41.5722,35.9147,Turkey,TR,TUR,Samsun,minor,142190.0,1792560571,Asia,small_urban
M’lang,M'lang,6.95,124.88,Philippines,PH,PHL,Cotabato,,98195.0,1608858911,Asia,small_urban
Iga,Iga,34.7667,136.1333,Japan,JP,JPN,Mie,,85883.0,1392003101,Asia,small_urban
Kiryū,Kiryu,36.4052,139.4973,Japan,JP,JPN,Gunma,,105751.0,1392003445,Asia,small_urban
Mooka,Mooka,36.4404,140.0134,Japan,JP,JPN,Tochigi,,78665.0,1392952105,Asia,small_urban
Douliu,Douliu,23.7075,120.5439,Taiwan,TW,TWN,Yunlin,admin,107924.0,1158732750,Asia,small_urban
Nantou,Nantou,23.9167,120.6833,Taiwan,TW,TWN,Nantou,admin,101606.0,1158112865,Asia,small_urban
Komatsu,Komatsu,36.4083,136.4455,Japan,JP,JPN,Ishikawa,,108509.0,1392003448,Asia,small_urban
Monkayo,Monkayo,7.8239,126.0536,Philippines,PH,PHL,Davao de Oro,minor,93937.0,1608856677,Asia,small_urban
Siasi,Siasi,5.5462,120.8145,Philippines,PH,PHL,Sulu,,81689.0,1608781969,Asia,small_urban
Kazo,Kazo,36.1314,139.6018,Japan,JP,JPN,Saitama,,112792.0,1392384497,Asia,small_urban
Konan,Konan,35.0,136.0833,Japan,JP,JPN,Shiga,,54392.0,1392003316,Asia,small_urban
Yilan,Yilan,24.75,121.75,Taiwan,TW,TWN,Yilan,admin,150000.0,1158534780,Asia,small_urban
Phra Nakhon Si Ayutthaya,Phra Nakhon Si Ayutthaya,14.3478,100.5606,Thailand,TH,THA,Phra Nakhon Si Ayutthaya,admin,52940.0,1764002329,Asia,small_urban
Kiyose,Kiyose,35.7857,139.5265,Japan,JP,JPN,Saitama,,75389.0,1392003108,Asia,small_urban
San Mateo,San Mateo,16.88,121.58,Philippines,PH,PHL,Isabela,,66663.0,1608259452,Asia,small_urban
Weiyuan,Weiyuan,36.8413,101.9557,China,CN,CHN,Qinghai,minor,66490.0,1156249264,Asia,small_urban
Pandi,Pandi,14.87,120.95,Philippines,PH,PHL,Bulacan,,155115.0,1608700526,Asia,small_urban
Gumaca,Gumaca,13.921,122.1002,Philippines,PH,PHL,Quezon,,71942.0,1608989555,Asia,small_urban
Puttūr,Puttur,13.45,79.55,India,IN,IND,Andhra Pradesh,,54092.0,1356396930,Asia,small_urban
San Fernando,San Fernando,10.17,123.7,Philippines,PH,PHL,Cebu,,72224.0,1608073409,Asia,small_urban
Mabai,Mabai,23.0151,104.396,China,CN,CHN,Yunnan,minor,99930.0,1156543494,Asia,small_urban
Bhīmavaram,Bhimavaram,16.543,81.523,India,IN,IND,Andhra Pradesh,,142184.0,1356195520,Asia,small_urban
Bontang,Bontang,0.1333,117.5,Indonesia,ID,IDN,Kalimantan Timur,,161413.0,1360692406,Asia,small_urban
Kani,Kani,35.4261,137.0613,Japan,JP,JPN,Gifu,,99545.0,1392198191,Asia,small_urban
Kuwana,Kuwana,35.0667,136.6833,Japan,JP,JPN,Mie,,138798.0,1392018722,Asia,small_urban
Iwakuni,Iwakuni,34.1664,132.2189,Japan,JP,JPN,Yamaguchi,,127512.0,1392032573,Asia,small_urban
Būmahen,Bumahen,35.7314,51.8675,Iran,IR,IRN,Tehrān,,79034.0,1364656518,Asia,small_urban
Buluan,Buluan,6.7154,124.7854,Philippines,PH,PHL,Maguindanao,admin,57406.0,1608130728,Asia,small_urban
Silivri,Silivri,41.0736,28.2478,Turkey,TR,TUR,İstanbul,minor,137861.0,1792110769,Asia,small_urban
Bago,Bago,10.5388,122.8384,Philippines,PH,PHL,Negros Occidental,,191210.0,1608943172,Asia,small_urban
Alangalang,Alangalang,11.2061,124.8478,Philippines,PH,PHL,Leyte,,57185.0,1608580659,Asia,small_urban
Kirtipur,Kirtipur,27.6781,85.2769,Nepal,NP,NPL,,,65602.0,1524402867,Asia,small_urban
Gloria,Gloria,12.9722,121.4778,Philippines,PH,PHL,Oriental Mindoro,,50496.0,1608174467,Asia,small_urban
Eilat,Eilat,29.5569,34.9517,Israel,IL,ISR,Southern,,51935.0,1376831370,Asia,small_urban
Magalang,Magalang,15.22,120.67,Philippines,PH,PHL,Pampanga,minor,124188.0,1608172208,Asia,small_urban
Balkanabat,Balkanabat,39.5167,54.3667,Turkmenistan,TM,TKM,Balkan,admin,139000.0,1795885709,Asia,small_urban
Naqadeh,Naqadeh,36.9547,45.3881,Iran,IR,IRN,Āz̄arbāyjān-e Gharbī,minor,72975.0,1364695268,Asia,small_urban
Hatogaya-honchō,Hatogaya-honcho,35.8333,139.7333,Japan,JP,JPN,Saitama,,61379.0,1392167019,Asia,small_urban
Muroran,Muroran,42.3167,140.9667,Japan,JP,JPN,Hokkaidō,,81580.0,1392259868,Asia,small_urban
Alaşehir,Alasehir,38.35,28.5167,Turkey,TR,TUR,Manisa,minor,105145.0,1792803121,Asia,small_urban
Dalaguete,Dalaguete,9.7612,123.5349,Philippines,PH,PHL,Cebu,minor,74596.0,1608288277,Asia,small_urban
Bodhan,Bodhan,18.67,77.9,India,IN,IND,Telangāna,,77573.0,1356506985,Asia,small_urban
Fukutsu,Fukutsu,33.7667,130.4833,Japan,JP,JPN,Fukuoka,,65770.0,1392003286,Asia,small_urban
Al ‘Aqabah,Al `Aqabah,29.5319,35.0056,Jordan,JO,JOR,Al ‘Aqabah,admin,148398.0,1400618058,Asia,small_urban
San Isidro,San Isidro,15.3097,120.9069,Philippines,PH,PHL,Nueva Ecija,,54372.0,1608420595,Asia,small_urban
Virac,Virac,13.58,124.23,Philippines,PH,PHL,Catanduanes,admin,76520.0,1608265120,Asia,small_urban
Naga,Naga,10.22,123.75,Philippines,PH,PHL,Cebu,,133184.0,1608928299,Asia,small_urban
Chishtian,Chishtian,29.8,72.8333,Pakistan,PK,PAK,Punjab,,101659.0,1586451544,Asia,small_urban
Yongqing,Yongqing,39.2958,116.4897,China,CN,CHN,Hebei,minor,118494.0,1156904006,Asia,small_urban
Tokmok,Tokmok,42.8333,75.2833,Kyrgyzstan,KG,KGZ,Chüy,,53231.0,1417875875,Asia,small_urban
Xibang,Xibang,30.9412,120.8872,China,CN,CHN,Jiangsu,,65211.0,1156063023,Asia,small_urban
Wao,Wao,7.6404,124.7257,Philippines,PH,PHL,Lanao del Sur,,50366.0,1608411072,Asia,small_urban
Karakax,Karakax,37.2714,79.7267,China,CN,CHN,Xinjiang,minor,66541.0,1156181413,Asia,small_urban
Kōenchō,Koencho,43.8031,143.8947,Japan,JP,JPN,Hokkaidō,,115441.0,1392099278,Asia,small_urban
Wulan,Wulan,36.5585,104.6765,China,CN,CHN,Gansu,minor,86990.0,1156502662,Asia,small_urban
Jaunpur,Jaunpur,25.73,82.68,India,IN,IND,Uttar Pradesh,,180362.0,1356646586,Asia,small_urban
Barotac Nuevo,Barotac Nuevo,10.9,122.7,Philippines,PH,PHL,Iloilo,,58176.0,1608457314,Asia,small_urban
Al Muḩarraq,Al Muharraq,26.25,50.6167,Bahrain,BH,BHR,Al Muḩarraq,,75000.0,1048992336,Asia,small_urban
Kattaqo’rg’on Shahri,Kattaqo'rg'on Shahri,39.8989,66.2561,Uzbekistan,UZ,UZB,Samarqand,minor,58950.0,1860871064,Asia,small_urban
Toride,Toride,35.9115,140.0504,Japan,JP,JPN,Ibaraki,,103908.0,1392922950,Asia,small_urban
Khorramshahr,Khorramshahr,30.4394,48.1817,Iran,IR,IRN,Khūzestān,minor,133097.0,1364111149,Asia,small_urban
Hezuo,Hezuo,35.0002,102.9103,China,CN,CHN,Gansu,minor,112173.0,1156739933,Asia,small_urban
Kiyosu,Kiyosu,35.1998,136.8529,Japan,JP,JPN,Aichi,,69687.0,1392439011,Asia,small_urban
Baras,Baras,14.52,121.27,Philippines,PH,PHL,Rizal,,87637.0,1608108994,Asia,small_urban
Ar Rastan,Ar Rastan,34.9167,36.7333,Syria,SY,SYR,Ḩimş,minor,61176.0,1760205423,Asia,small_urban
Calapan,Calapan,13.414,121.18,Philippines,PH,PHL,Bulacan,,145786.0,1608531332,Asia,small_urban
Pikit,Pikit,7.05,124.67,Philippines,PH,PHL,Cotabato,,67024.0,1608218990,Asia,small_urban
Mengmeng,Mengmeng,23.4718,99.8336,China,CN,CHN,Yunnan,minor,51908.0,1156100887,Asia,small_urban
Kōka,Koka,34.9667,136.1667,Japan,JP,JPN,Shiga,,89619.0,1392003145,Asia,small_urban
Naguilian,Naguilian,16.53,120.4,Philippines,PH,PHL,La Union,,52189.0,1608096678,Asia,small_urban
Onomichi,Onomichi,34.4167,133.2,Japan,JP,JPN,Hiroshima,,130143.0,1392886423,Asia,small_urban
Tsuruoka,Tsuruoka,38.7272,139.8267,Japan,JP,JPN,Yamagata,,121371.0,1392935450,Asia,small_urban
Ubud,Ubud,-8.5069,115.2624,Indonesia,ID,IDN,Bali,,74800.0,1360332409,Asia,small_urban
Catarman,Catarman,12.4994,124.6328,Philippines,PH,PHL,Northern Samar,admin,97879.0,1608432162,Asia,small_urban
Indanan,Indanan,6.0,120.97,Philippines,PH,PHL,Sulu,,93168.0,1608021703,Asia,small_urban
Rahat,Rahat,31.3925,34.7544,Israel,IL,ISR,Southern,,64462.0,1376207828,Asia,small_urban
Kabacan,Kabacan,7.12,124.82,Philippines,PH,PHL,Cotabato,,77164.0,1608578355,Asia,small_urban
Blitar,Blitar,-8.1,112.15,Indonesia,ID,IDN,Jawa Timur,,132018.0,1360011677,Asia,small_urban
Lechang,Lechang,35.6415,111.4633,China,CN,CHN,Shanxi,minor,64587.0,1156327170,Asia,small_urban
Lantapan,Lantapan,8.0,125.0233,Philippines,PH,PHL,Bukidnon,,65974.0,1608127977,Asia,small_urban
Shillong,Shillong,25.5822,91.8944,India,IN,IND,Meghālaya,admin,143229.0,1356533936,Asia,small_urban
Kesennuma,Kesennuma,38.9081,141.5699,Japan,JP,JPN,Miyagi,,59341.0,1392003464,Asia,small_urban
Niksar,Niksar,40.5917,36.9517,Turkey,TR,TUR,Tokat,minor,64119.0,1792863464,Asia,small_urban
Bade,Bade,24.9575,121.2989,Taiwan,TW,TWN,Taoyuan,,172065.0,1158126203,Asia,small_urban
Phủ Lý,Phu Ly,20.5411,105.9139,Vietnam,VN,VNM,Hà Nam,admin,136654.0,1704841896,Asia,small_urban
Niihama,Niihama,33.9667,133.2833,Japan,JP,JPN,Ehime,,114971.0,1392682431,Asia,small_urban
Al Kūfah,Al Kufah,32.03,44.4,Iraq,IQ,IRQ,An Najaf,minor,171305.0,1368929021,Asia,small_urban
Binmaley,Binmaley,16.0323,120.269,Philippines,PH,PHL,Pangasinan,,86881.0,1608102609,Asia,small_urban
Palopo,Palopo,-3.0,120.2,Indonesia,ID,IDN,Sulawesi Selatan,,180130.0,1360740288,Asia,small_urban
Xiluodu,Xiluodu,28.236,103.6301,China,CN,CHN,Yunnan,minor,61668.0,1156058164,Asia,small_urban
Opol,Opol,8.52,124.57,Philippines,PH,PHL,Misamis Oriental,,66327.0,1608552657,Asia,small_urban
San Andres,San Andres,14.5739,121.0039,Philippines,PH,PHL,Rizal,,133727.0,1608862371,Asia,small_urban
Kratie,Kratie,12.48,106.03,Cambodia,KH,KHM,Kratie,admin,60000.0,1116453792,Asia,small_urban
Upi,Upi,7.0106,124.1629,Philippines,PH,PHL,Maguindanao,,59004.0,1608496674,Asia,small_urban
Buhi,Buhi,13.4347,123.5167,Philippines,PH,PHL,Camarines Sur,,81306.0,1608188485,Asia,small_urban
Solana,Solana,17.6522,121.6914,Philippines,PH,PHL,Cagayan,,88445.0,1608155391,Asia,small_urban
Tigbauan,Tigbauan,10.6747,122.3776,Philippines,PH,PHL,Iloilo,,65245.0,1608641668,Asia,small_urban
Matsubara,Matsubara,34.5833,135.55,Japan,JP,JPN,Ōsaka,,117811.0,1392003470,Asia,small_urban
Urasoe,Urasoe,26.2458,127.7219,Japan,JP,JPN,Okinawa,,115855.0,1392003314,Asia,small_urban
Lüleburgaz,Luleburgaz,41.4056,27.3569,Turkey,TR,TUR,Kırklareli,minor,148037.0,1792000752,Asia,small_urban
Jahrom,Jahrom,28.5031,53.5658,Iran,IR,IRN,Fārs,minor,141634.0,1364271412,Asia,small_urban
Gannan,Gannan,47.9117,123.4978,China,CN,CHN,Heilongjiang,minor,59239.0,1156081008,Asia,small_urban
Swabi,Swabi,34.1202,72.4702,Pakistan,PK,PAK,Khyber Pakhtunkhwa,minor,115018.0,1586628764,Asia,small_urban
Ceyhan,Ceyhan,37.0289,35.8125,Turkey,TR,TUR,Adana,minor,159955.0,1792949917,Asia,small_urban
Mobara,Mobara,35.4285,140.2881,Japan,JP,JPN,Chiba,,88330.0,1392225442,Asia,small_urban
Manokwari,Manokwari,-0.8667,134.0833,Indonesia,ID,IDN,Papua Barat,admin,107325.0,1360451991,Asia,small_urban
Bené Beraq,Bene Beraq,32.0833,34.8333,Israel,IL,ISR,Tel Aviv,,193774.0,1376944837,Asia,small_urban
Qingquan,Qingquan,38.7823,101.0826,China,CN,CHN,Gansu,minor,69902.0,1156215844,Asia,small_urban
Fujimi,Fujimi,35.8566,139.5492,Japan,JP,JPN,Saitama,,111858.0,1392003257,Asia,small_urban
Al Buraymī,Al Buraymi,24.2592,55.7839,Oman,OM,OMN,Al Buraymī,admin,67963.0,1512959921,Asia,small_urban
Bato,Bato,13.3578,123.3678,Philippines,PH,PHL,Camarines Sur,,52155.0,1608558575,Asia,small_urban
Ishikari,Ishikari,43.1667,141.3167,Japan,JP,JPN,Hokkaidō,,58284.0,1392382929,Asia,small_urban
Kyōtanabe,Kyotanabe,34.8144,135.7678,Japan,JP,JPN,Kyōto,,73985.0,1392003459,Asia,small_urban
Bam,Bam,29.0994,58.3436,Iran,IR,IRN,Kermān,minor,127396.0,1364697653,Asia,small_urban
San Andrés,San Andres,12.5847,-81.7006,Colombia,CO,COL,San Andrés y Providencia,admin,71946.0,1170563968,Asia,small_urban
Natori-shi,Natori-shi,38.1715,140.8918,Japan,JP,JPN,Miyagi,,79250.0,1392168361,Asia,small_urban
Lamitan,Lamitan,6.65,122.13,Philippines,PH,PHL,Basilan,,100150.0,1608647250,Asia,small_urban
Kashiwara,Kashiwara,34.5167,135.8,Japan,JP,JPN,Nara,,121604.0,1392686221,Asia,small_urban
San Juan,San Juan,14.604,121.03,Philippines,PH,PHL,San Juan,admin,126347.0,1608817515,Asia,small_urban
Maramag,Maramag,7.7631,125.005,Philippines,PH,PHL,Bukidnon,,108293.0,1608275407,Asia,small_urban
Settsu,Settsu,34.7772,135.5622,Japan,JP,JPN,Ōsaka,,86168.0,1392003111,Asia,small_urban
Tiantoujiao,Tiantoujiao,23.0241,114.1046,China,CN,CHN,Guangdong,,166774.0,1156753422,Asia,small_urban
Darhan,Darhan,49.6167,106.35,Mongolia,MN,MNG,Selenge,,74738.0,1496510995,Asia,small_urban
Giresun,Giresun,40.9153,38.3894,Turkey,TR,TUR,Giresun,admin,125682.0,1792486859,Asia,small_urban
Ponnūru,Ponnuru,16.0667,80.5667,India,IN,IND,Andhra Pradesh,,59913.0,1356219968,Asia,small_urban
Carcar,Carcar,10.12,123.63,Philippines,PH,PHL,Cebu,,136453.0,1608778175,Asia,small_urban
Caramoan,Caramoan,13.7707,123.8631,Philippines,PH,PHL,Camarines Sur,,51728.0,1608379060,Asia,small_urban
Tsuruga,Tsuruga,35.6452,136.0555,Japan,JP,JPN,Fukui,,66123.0,1392056382,Asia,small_urban
Ducheng,Ducheng,23.2445,111.5342,China,CN,CHN,Guangdong,minor,85659.0,1156252532,Asia,small_urban
Plaridel,Plaridel,14.8869,120.8569,Philippines,PH,PHL,Bulacan,,114432.0,1608000273,Asia,small_urban
Higashi-Matsuyama,Higashi-Matsuyama,36.0422,139.3999,Japan,JP,JPN,Saitama,,91818.0,1392365792,Asia,small_urban
Jōsō,Joso,36.0236,139.9938,Japan,JP,JPN,Ibaraki,,59314.0,1392553484,Asia,small_urban
Sơn La,Son La,21.327,103.9141,Vietnam,VN,VNM,Sơn La,admin,106052.0,1704957010,Asia,small_urban
Mitoyo,Mitoyo,34.1825,133.715,Japan,JP,JPN,Kagawa,,61838.0,1392003344,Asia,small_urban
Urgut Shahri,Urgut Shahri,39.419,67.2612,Uzbekistan,UZ,UZB,Samarqand,minor,99675.0,1860562788,Asia,small_urban
Hinthada,Hinthada,17.6461,95.4603,Burma,MM,MMR,Ayeyarwady,,170312.0,1104524588,Asia,small_urban
Bukittinggi,Bukittinggi,-0.3056,100.3692,Indonesia,ID,IDN,Sumatera Barat,,113326.0,1360552560,Asia,small_urban
Polatlı,Polatli,39.5842,32.1472,Turkey,TR,TUR,Ankara,minor,125075.0,1792124981,Asia,small_urban
Fujimino,Fujimino,35.8795,139.5198,Japan,JP,JPN,Saitama,,113490.0,1392078110,Asia,small_urban
Hassan,Hassan,13.012,76.068,India,IN,IND,Karnātaka,,133436.0,1356007455,Asia,small_urban
Korgas,Korgas,44.2125,80.4097,China,CN,CHN,Xinjiang,,85000.0,1156221385,Asia,small_urban
Samut Sakhon,Samut Sakhon,13.5486,100.2775,Thailand,TH,THA,Samut Sakhon,admin,60103.0,1764502057,Asia,small_urban
Jinxing,Jinxing,37.9869,106.2027,China,CN,CHN,Ningxia,,60086.0,1156547623,Asia,small_urban
Mulanay,Mulanay,13.5222,122.4042,Philippines,PH,PHL,Quezon,,55576.0,1608804064,Asia,small_urban
Linquan,Linquan,37.9513,110.9877,China,CN,CHN,Shanxi,minor,91670.0,1156332414,Asia,small_urban
Boli,Boli,45.7564,130.5759,China,CN,CHN,Heilongjiang,minor,95260.0,1156933394,Asia,small_urban
El Salvador,El Salvador,8.57,124.52,Philippines,PH,PHL,Misamis Oriental,,58771.0,1608813941,Asia,small_urban
Recife,Recife,-8.05,-34.9,Brazil,BR,BRA,Pernambuco,admin,1488920.0,1076137337,South America,metropolitan
Valencia,Valencia,10.1833,-68.0,Venezuela,VE,VEN,Carabobo,admin,1484430.0,1862309871,South America,metropolitan
Goiânia,Goiania,-16.6667,-49.25,Brazil,BR,BRA,Goiás,admin,1437237.0,1076034054,South America,metropolitan
Porto Alegre,Porto Alegre,-30.0331,-51.23,Brazil,BR,BRA,Rio Grande do Sul,admin,1332570.0,1076658221,South America,metropolitan
Barranquilla,Barranquilla,10.9833,-74.8019,Colombia,CO,COL,Atlántico,admin,1326588.0,1170179113,South America,metropolitan
Guarulhos,Guarulhos,-23.4628,-46.5328,Brazil,BR,BRA,São Paulo,,1324781.0,1076730420,South America,metropolitan
Belém,Belem,-1.4558,-48.5039,Brazil,BR,BRA,Pará,admin,1303389.0,1076646823,South America,metropolitan
Porto,Porto,41.1621,-8.622,Portugal,PT,PRT,Porto,admin,1278210.0,1620356810,South America,metropolitan
Rosario,Rosario,-32.9575,-60.6394,Argentina,AR,ARG,Santa Fe,minor,1276000.0,1032770677,South America,metropolitan
Campinas,Campinas,-22.9058,-47.0608,Brazil,BR,BRA,São Paulo,,1213792.0,1076145766,South America,metropolitan
Barquisimeto,Barquisimeto,10.0636,-69.3347,Venezuela,VE,VEN,Lara,admin,1059092.0,1862860739,South America,metropolitan
Arequipa,Arequipa,-16.4,-71.5333,Peru,PE,PER,Arequipa,admin,1008290.0,1604723954,South America,metropolitan
Natal,Natal,-6.9838,-60.2699,Brazil,BR,BRA,Amazonas,,980588.0,1076336975,South America,metropolitan
Maceió,Maceio,-9.6658,-35.735,Brazil,BR,BRA,Alagoas,admin,957916.0,1076440479,South America,metropolitan
Teresina,Teresina,-5.0949,-42.8042,Brazil,BR,BRA,Piauí,admin,953172.0,1076727667,South America,metropolitan
Cartagena,Cartagena,10.4,-75.5,Colombia,CO,COL,Bolívar,admin,914552.0,1170886102,South America,metropolitan
Santiago del Estero,Santiago del Estero,-27.7833,-64.2667,Argentina,AR,ARG,Santiago del Estero,admin,911506.0,1032492280,South America,metropolitan
Campo Grande,Campo Grande,-20.4839,-54.615,Brazil,BR,BRA,Mato Grosso do Sul,admin,897938.0,1076660445,South America,metropolitan
São Gonçalo,Sao Goncalo,-22.8269,-43.0539,Brazil,BR,BRA,Rio de Janeiro,,896744.0,1076485783,South America,metropolitan
Bucaramanga,Bucaramanga,7.1333,-73.0,Colombia,CO,COL,Santander,admin,893040.0,1170940590,South America,metropolitan
Barinas,Barinas,8.6333,-70.2,Venezuela,VE,VEN,Barinas,admin,873962.0,1862647790,South America,metropolitan
Cochabamba,Cochabamba,-17.3883,-66.1597,Bolivia,BO,BOL,Cochabamba,admin,856198.0,1068793894,South America,metropolitan
Iguaçu,Iguacu,-22.74,-43.47,Brazil,BR,BRA,Rio de Janeiro,,844583.0,1076339714,South America,metropolitan
João Pessoa,Joao Pessoa,-7.12,-34.88,Brazil,BR,BRA,Paraíba,admin,833932.0,1076922014,South America,metropolitan
São Bernardo do Campo,Sao Bernardo do Campo,-23.7,-46.55,Brazil,BR,BRA,São Paulo,,810729.0,1076793227,South America,metropolitan
Cúcuta,Cucuta,7.8942,-72.5039,Colombia,CO,COL,Norte de Santander,admin,806378.0,1170743755,South America,metropolitan
Ciudad Guayana,Ciudad Guayana,8.3667,-62.65,Venezuela,VE,VEN,Bolívar,minor,751331.0,1862889027,South America,metropolitan
Natal,Natal,-5.7833,-35.2,Brazil,BR,BRA,Rio Grande do Norte,admin,751300.0,1076697777,South America,metropolitan
Santo André,Santo Andre,-23.6572,-46.5333,Brazil,BR,BRA,São Paulo,,748919.0,1076625886,South America,metropolitan
Osasco,Osasco,-23.5328,-46.7919,Brazil,BR,BRA,São Paulo,,743432.0,1076786452,South America,metropolitan
Comodoro Rivadavia,Comodoro Rivadavia,-45.8647,-67.4808,Argentina,AR,ARG,Chubut,minor,730266.0,1032042035,South America,metropolitan
Sorocaba,Sorocaba,-23.5017,-47.4581,Brazil,BR,BRA,São Paulo,,723574.0,1076758708,South America,metropolitan
Concepción,Concepcion,-36.8282,-73.0514,Chile,CL,CHL,Biobío,admin,719944.0,1152838958,South America,metropolitan
Uberlândia,Uberlandia,-18.9231,-48.2886,Brazil,BR,BRA,Minas Gerais,,713232.0,1076495001,South America,metropolitan
Jaboatão,Jaboatao,-8.1803,-35.0014,Brazil,BR,BRA,Pernambuco,,702621.0,1076000699,South America,metropolitan
Ribeirão Prêto,Ribeirao Preto,-21.1783,-47.8067,Brazil,BR,BRA,São Paulo,,698259.0,1076524478,South America,metropolitan
São José dos Campos,Sao Jose dos Campos,-23.1789,-45.8869,Brazil,BR,BRA,São Paulo,,697428.0,1076783887,South America,metropolitan
Guadalupe,Guadalupe,25.6775,-100.2597,Mexico,MX,MEX,Nuevo León,minor,691931.0,1484002410,South America,metropolitan
Mar del Plata,Mar del Plata,-38.0,-57.55,Argentina,AR,ARG,Buenos Aires,minor,682605.0,1032456103,South America,metropolitan
Soledad,Soledad,10.9167,-74.75,Colombia,CO,COL,Atlántico,minor,676014.0,1170765625,South America,metropolitan
Aracaju,Aracaju,-10.9167,-37.05,Brazil,BR,BRA,Sergipe,admin,664908.0,1076527830,South America,metropolitan
Villavicencio,Villavicencio,4.15,-73.6333,Colombia,CO,COL,Meta,admin,664148.0,1170426927,South America,metropolitan
Catia La Mar,Catia La Mar,10.6,-67.0333,Venezuela,VE,VEN,La Guaira,minor,661897.0,1862657837,South America,metropolitan
Cuiabá,Cuiaba,-15.5958,-56.0969,Brazil,BR,BRA,Mato Grosso,admin,650912.0,1076112309,South America,metropolitan
Contagem,Contagem,-19.9319,-44.0539,Brazil,BR,BRA,Minas Gerais,,621865.0,1076845191,South America,metropolitan
Joinvile,Joinvile,-26.3204,-48.8437,Brazil,BR,BRA,Santa Catarina,,616323.0,1076050637,South America,metropolitan
Feira de Santana,Feira de Santana,-12.25,-38.95,Brazil,BR,BRA,Bahia,minor,616279.0,1076892244,South America,metropolitan
San Miguel de Tucumán,San Miguel de Tucuman,-26.8167,-65.2167,Argentina,AR,ARG,Tucumán,admin,605767.0,1032233996,South America,metropolitan
Pereira,Pereira,4.8143,-75.6946,Colombia,CO,COL,Risaralda,admin,590554.0,1170386718,South America,metropolitan
Puente Alto,Puente Alto,-33.6167,-70.5667,Chile,CL,CHL,Región Metropolitana,minor,573935.0,1152516346,South America,metropolitan
Macau,Macau,22.2006,113.5461,Macau,MO,MAC,,,568700.0,1446227359,South America,metropolitan
Ciudad Bolívar,Ciudad Bolivar,8.1219,-63.55,Venezuela,VE,VEN,Bolívar,admin,567953.0,1862318264,South America,metropolitan
Bello,Bello,6.3333,-75.5667,Colombia,CO,COL,Antioquia,minor,561955.0,1170423489,South America,metropolitan
Londrina,Londrina,-23.31,-51.1628,Brazil,BR,BRA,Paraná,,555937.0,1076723241,South America,metropolitan
Chiclayo,Chiclayo,-6.763,-79.8366,Peru,PE,PER,Lambayeque,admin,552508.0,1604799615,South America,metropolitan
Palma,Palma,39.5667,2.65,Spain,ES,ESP,Balearic Islands,admin,550000.0,1724728111,South America,metropolitan
Valledupar,Valledupar,10.4833,-73.25,Colombia,CO,COL,Cesar,admin,544134.0,1170481949,South America,metropolitan
Ibagué,Ibague,4.4333,-75.2333,Colombia,CO,COL,Tolima,admin,541101.0,1170245063,South America,metropolitan
Juiz de Fora,Juiz de Fora,-21.7619,-43.3494,Brazil,BR,BRA,Minas Gerais,,540756.0,1076006144,South America,metropolitan
Santa Cruz,Santa Cruz,28.4667,-16.25,Spain,ES,ESP,Canary Islands,admin,538000.0,1724813158,South America,metropolitan
Florianópolis,Florianopolis,-27.6122,-48.4853,Brazil,BR,BRA,Santa Catarina,admin,537213.0,1076190259,South America,metropolitan
Salta,Salta,-24.7833,-65.4167,Argentina,AR,ARG,Salta,admin,535303.0,1032926124,South America,metropolitan
Santa Teresa del Tuy,Santa Teresa del Tuy,10.2333,-66.6639,Venezuela,VE,VEN,Miranda,minor,525321.0,1862528581,South America,metropolitan
Montería,Monteria,8.75,-75.8833,Colombia,CO,COL,Córdoba,admin,523150.0,1170855299,South America,metropolitan
Soacha,Soacha,4.5872,-74.2214,Colombia,CO,COL,Cundinamarca,minor,522442.0,1170512000,South America,metropolitan
Maipú,Maipu,-33.5167,-70.7667,Chile,CL,CHL,Región Metropolitana,,521627.0,1152583016,South America,metropolitan
Serra,Serra,-20.1289,-40.3078,Brazil,BR,BRA,Espírito Santo,,520649.0,1076191325,South America,metropolitan
Santa Marta,Santa Marta,11.2419,-74.2053,Colombia,CO,COL,Magdalena,admin,515556.0,1170715594,South America,metropolitan
Maturín,Maturin,9.75,-63.183,Venezuela,VE,VEN,Monagas,admin,514046.0,1862546949,South America,metropolitan
Macapá,Macapa,0.033,-51.05,Brazil,BR,BRA,Amapá,admin,512902.0,1076189884,South America,metropolitan
Campos,Campos,-21.7539,-41.3239,Brazil,BR,BRA,Rio de Janeiro,,511168.0,1076606365,South America,metropolitan
Onitsha,Onitsha,6.1667,6.7833,Nigeria,NG,NGA,Anambra,minor,1483000.0,1566593483,Africa,metropolitan
Kismaayo,Kismaayo,-0.3581,42.5453,Somalia,SO,SOM,Jubbada Hoose,admin,1458000.0,1706091701,Africa,metropolitan
Dakar,Dakar,14.6928,-17.4467,Senegal,SN,SEN,Dakar,primary,1438725.0,1686604760,Africa,metropolitan
Cacuaco,Cacuaco,-8.8053,13.2444,Angola,AO,AGO,Luanda,,1279488.0,1024559448,Africa,metropolitan
Soweto,Soweto,-26.2678,27.8585,South Africa,ZA,ZAF,Gauteng,,1271628.0,1710627007,Africa,metropolitan
Mombasa,Mombasa,-4.05,39.6667,Kenya,KE,KEN,Mombasa,admin,1208333.0,1404512373,Africa,metropolitan
Hargeysa,Hargeysa,9.5631,44.0675,Somalia,SO,SOM,Woqooyi Galbeed,admin,1200000.0,1706832021,Africa,metropolitan
Baidoa,Baidoa,3.1167,43.65,Somalia,SO,SOM,Bay,admin,1200000.0,1706563100,Africa,metropolitan
Maiduguri,Maiduguri,11.8333,13.15,Nigeria,NG,NGA,Borno,admin,1197497.0,1566540296,Africa,metropolitan
Pikine,Pikine,14.75,-17.4,Senegal,SN,SEN,Dakar,,1170791.0,1686165071,Africa,metropolitan
Aba,Aba,5.1167,7.3667,Nigeria,NG,NGA,Abia,minor,1160000.0,1566262000,Africa,metropolitan
Benin City,Benin City,6.3333,5.6222,Nigeria,NG,NGA,Edo,admin,1147188.0,1566080151,Africa,metropolitan
Bujumbura,Bujumbura,-3.3833,29.3667,Burundi,BI,BDI,Bujumbura Mairie,primary,1143202.0,1108101689,Africa,metropolitan
Maputo,Maputo,-25.9667,32.5833,Mozambique,MZ,MOZ,Maputo,primary,1133200.0,1508074843,Africa,metropolitan
Fès,Fes,34.0433,-5.0033,Morocco,MA,MAR,Fès-Meknès,admin,1112072.0,1504861997,Africa,metropolitan
Mwanza,Mwanza,-2.5167,32.9,Tanzania,TZ,TZA,Mwanza,admin,1104521.0,1834011288,Africa,metropolitan
Ikare,Ikare,7.5167,5.75,Nigeria,NG,NGA,Ondo,minor,1099931.0,1566683694,Africa,metropolitan
Tamale,Tamale,9.4075,-0.8533,Ghana,GH,GHA,Northern,admin,1095808.0,1288890688,Africa,metropolitan
N’Djamena,N'Djamena,12.11,15.05,Chad,TD,TCD,N’Djamena,primary,1092066.0,1148708596,Africa,metropolitan
Nouakchott,Nouakchott,18.0858,-15.9785,Mauritania,MR,MRT,Nouakchott Ouest,primary,1077169.0,1478414984,Africa,metropolitan
Matola,Matola,-25.9667,32.4667,Mozambique,MZ,MOZ,Maputo,,1032197.0,1508768577,Africa,metropolitan
Ogbomoso,Ogbomoso,8.1333,4.25,Nigeria,NG,NGA,Oyo,minor,1032000.0,1566373448,Africa,metropolitan
Niamey,Niamey,13.515,2.1175,Niger,NE,NER,Niamey,primary,1026848.0,1562932886,Africa,metropolitan
Lilongwe,Lilongwe,-13.9833,33.7833,Malawi,MW,MWI,Lilongwe,primary,989318.0,1454688499,Africa,metropolitan
Al Mijlad,Al Mijlad,11.0339,27.74,Sudan,SD,SDN,West Kordofan,,985000.0,1729768355,Africa,metropolitan
Marrakech,Marrakech,31.63,-8.0089,Morocco,MA,MAR,Marrakech-Safi,admin,966987.0,1504172585,Africa,metropolitan
Asmara,Asmara,15.3228,38.925,Eritrea,ER,ERI,Ma’ĭkel,primary,963000.0,1232791236,Africa,metropolitan
Tangier,Tangier,35.7767,-5.8039,Morocco,MA,MAR,Tanger-Tétouan-Al Hoceïma,admin,947952.0,1504861504,Africa,metropolitan
Khartoum North,Khartoum North,15.6333,32.6333,Sudan,SD,SDN,Khartoum,,936349.0,1729318628,Africa,metropolitan
Owerri,Owerri,5.485,7.035,Nigeria,NG,NGA,Imo,admin,908109.0,1566679132,Africa,metropolitan
Bobo-Dioulasso,Bobo-Dioulasso,11.1833,-4.2833,Burkina Faso,BF,BFA,Hauts-Bassins,admin,903887.0,1854348796,Africa,metropolitan
Abeokuta,Abeokuta,7.1608,3.3483,Nigeria,NG,NGA,Ogun,admin,888924.0,1566979497,Africa,metropolitan
Ikeja,Ikeja,6.6,3.35,Nigeria,NG,NGA,Lagos,admin,861300.0,1566486388,Africa,metropolitan
Akure,Akure,7.25,5.195,Nigeria,NG,NGA,Ondo,admin,847903.0,1566568277,Africa,metropolitan
Ilorin,Ilorin,8.5,4.55,Nigeria,NG,NGA,Kwara,admin,847582.0,1566480168,Africa,metropolitan
Pietermaritzburg,Pietermaritzburg,-29.6167,30.3833,South Africa,ZA,ZAF,KwaZulu-Natal,admin,839327.0,1710690280,Africa,metropolitan
Durban,Durban,-29.8833,31.05,South Africa,ZA,ZAF,KwaZulu-Natal,,838634.0,1710149138,Africa,metropolitan
Libreville,Libreville,0.3903,9.4542,Gabon,GA,GAB,Estuaire,primary,797003.0,1266952885,Africa,metropolitan
Lubango,Lubango,-14.9167,13.5,Angola,AO,AGO,Huíla,admin,776249.0,1024669127,Africa,metropolitan
Kaduna,Kaduna,10.5167,7.4333,Nigeria,NG,NGA,Kaduna,admin,760084.0,1566368729,Africa,metropolitan
Gaalkacyo,Gaalkacyo,6.7697,47.4308,Somalia,SO,SOM,Mudug,admin,745000.0,1706067930,Africa,metropolitan
Nampula,Nampula,-15.1167,39.2667,Mozambique,MZ,MOZ,Nampula,admin,743000.0,1508958445,Africa,metropolitan
Pretoria,Pretoria,-25.7461,28.1881,South Africa,ZA,ZAF,Gauteng,primary,741651.0,1710176249,Africa,metropolitan
Cabinda,Cabinda,-5.56,12.19,Angola,AO,AGO,Cabinda,admin,739182.0,1024474012,Africa,metropolitan
Osogbo,Osogbo,7.7667,4.5667,Nigeria,NG,NGA,Osun,admin,731000.0,1566395088,Africa,metropolitan
Marka,Marka,1.7133,44.7656,Somalia,SO,SOM,Shabeellaha Hoose,admin,716361.0,1706165964,Africa,metropolitan
Enugu,Enugu,6.4528,7.5111,Nigeria,NG,NGA,Enugu,admin,715774.0,1566212729,Africa,metropolitan
Boosaaso,Boosaaso,11.2886,49.1819,Somalia,SO,SOM,Bari,admin,700906.0,1706054548,Africa,metropolitan
Bauchi,Bauchi,10.3158,9.8442,Nigeria,NG,NGA,Bauchi,admin,693700.0,1566483284,Africa,metropolitan
Lokoja,Lokoja,7.8019,6.7442,Nigeria,NG,NGA,Kogi,admin,692050.0,1566772925,Africa,metropolitan
Cotonou,Cotonou,6.3667,2.4333,Benin,BJ,BEN,Littoral,primary,679012.0,1204955174,Africa,metropolitan
Bulawayo,Bulawayo,-20.17,28.58,Zimbabwe,ZW,ZWE,Bulawayo,admin,665940.0,1716032632,Africa,metropolitan
Huambo,Huambo,-12.7767,15.7347,Angola,AO,AGO,Huambo,admin,665564.0,1024079828,Africa,metropolitan
Jalingo,Jalingo,8.9,11.3667,Nigeria,NG,NGA,Taraba,admin,660213.0,1566732241,Africa,metropolitan
Benghazi,Benghazi,32.1167,20.0667,Libya,LY,LBY,Banghāzī,admin,631555.0,1434915572,Africa,metropolitan
Jos,Jos,9.9167,8.8903,Nigeria,NG,NGA,Plateau,admin,622802.0,1566773679,Africa,metropolitan
Malanje,Malanje,-9.5333,16.35,Angola,AO,AGO,Malanje,admin,604215.0,1024774947,Africa,metropolitan
Djibouti,Djibouti,11.5883,43.145,Djibouti,DJ,DJI,Djibouti,primary,603900.0,1262028958,Africa,metropolitan
Tunis,Tunis,36.8064,10.1817,Tunisia,TN,TUN,Tunis,primary,602560.0,1788742103,Africa,metropolitan
Garoua,Garoua,9.3,13.4,Cameroon,CM,CMR,Nord,admin,600000.0,1120803808,Africa,metropolitan
Bafoussam,Bafoussam,5.4667,10.4167,Cameroon,CM,CMR,Ouest,admin,600000.0,1120435460,Africa,metropolitan
Mbale,Mbale,1.0806,34.175,Uganda,UG,UGA,Mbale,admin,586300.0,1800265900,Africa,metropolitan
Port Sudan,Port Sudan,19.6167,37.2167,Sudan,SD,SDN,Red Sea,admin,579942.0,1729710259,Africa,metropolitan
Nakuru,Nakuru,-0.3,36.0667,Kenya,KE,KEN,Nakuru,admin,570674.0,1404140179,Africa,metropolitan
Uyo,Uyo,5.0333,7.9275,Nigeria,NG,NGA,Akwa Ibom,admin,554906.0,1566061694,Africa,metropolitan
Rustenburg,Rustenburg,-25.6667,27.2428,South Africa,ZA,ZAF,North West,,549575.0,1710326039,Africa,metropolitan
Mbeya,Mbeya,-8.9,33.45,Tanzania,TZ,TZA,Mbeya,admin,541603.0,1834396594,Africa,metropolitan
El Geneina,El Geneina,13.45,22.45,Sudan,SD,SDN,West Darfur,admin,538390.0,1729642412,Africa,metropolitan
Kassala,Kassala,15.45,36.4,Sudan,SD,SDN,Kassala,admin,536009.0,1729157224,Africa,metropolitan
Beira,Beira,-19.8333,34.85,Mozambique,MZ,MOZ,Sofala,admin,530604.0,1508407369,Africa,metropolitan
Touba,Touba,14.8667,-15.8833,Senegal,SN,SEN,Diourbel,,529176.0,1686956738,Africa,metropolitan
Ndola,Ndola,-12.9689,28.6325,Zambia,ZM,ZMB,Copperbelt,admin,528330.0,1894032745,Africa,metropolitan
Port Said,Port Said,31.2625,32.3061,Egypt,EG,EGY,Būr Sa‘īd,admin,524433.0,1818628574,Africa,metropolitan
Meknès,Meknes,33.895,-5.5547,Morocco,MA,MAR,Fès-Meknès,,520428.0,1504333193,Africa,metropolitan
Al Fayyūm,Al Fayyum,29.3084,30.8441,Egypt,EG,EGY,Al Fayyūm,admin,519047.0,1818281002,Africa,metropolitan
Suez,Suez,29.9667,32.55,Egypt,EG,EGY,As Suways,admin,516959.0,1818495972,Africa,metropolitan
Benguela,Benguela,-12.55,13.4167,Angola,AO,AGO,Benguela,admin,512886.0,1024141961,Africa,metropolitan
Kitwe,Kitwe,-12.8167,28.2,Zambia,ZM,ZMB,Copperbelt,,504194.0,1894321752,Africa,metropolitan
Ile-Ife,Ile-Ife,7.4667,4.5667,Nigeria,NG,NGA,Osun,minor,501952.0,1566756897,Africa,metropolitan
El Fasher,El Fasher,13.6306,25.35,Sudan,SD,SDN,North Darfur,admin,500000.0,1729372385,Africa,metropolitan
Talatona,Talatona,-8.9167,13.1833,Angola,AO,AGO,Luanda,,500000.0,1024988332,Africa,metropolitan
Auckland,Auckland,-36.8406,174.74,New Zealand,NZ,NZL,Auckland,admin,1346091.0,1554435911,Oceania,metropolitan
Adelaide,Adelaide,-34.9275,138.6,Australia,AU,AUS,South Australia,admin,1295714.0,1036538171,Oceania,metropolitan
Sale,Sale,34.0333,-6.8,Morocco,MA,MAR,Rabat-Salé-Kénitra,,850403.0,1504989034,Oceania,metropolitan
Port Moresby,Port Moresby,-9.4789,147.1494,Papua New Guinea,PG,PNG,National Capital,primary,700000.0,1598685395,Oceania,metropolitan
Gold Coast,Gold Coast,-28.0167,153.4,Australia,AU,AUS,Queensland,,607665.0,1036153217,Oceania,metropolitan
Albany,Albany,42.6664,-73.7987,United States,US,USA,New York,admin,590694.0,1840000417,Oceania,metropolitan
Delhi,Delhi,28.61,77.23,India,IN,IND,Delhi,admin,32226000.0,1356872604,North America,large_metropolitan
Mexico City,Mexico City,19.4333,-99.1333,Mexico,MX,MEX,Ciudad de México,primary,21804000.0,1484247881,North America,large_metropolitan
Cairo,Cairo,30.0444,31.2358,Egypt,EG,EGY,Al Qāhirah,primary,20296000.0,1818253931,North America,large_metropolitan
New York,New York,40.6943,-73.9249,United States,US,USA,New York,,18908608.0,1840034016,North America,large_metropolitan
Moscow,Moscow,55.7558,37.6172,Russia,RU,RUS,Moskva,primary,17332000.0,1643318494,North America,large_metropolitan
Buenos Aires,Buenos Aires,-34.6033,-58.3817,Argentina,AR,ARG,"Buenos Aires, Ciudad Autónoma de",primary,16710000.0,1032717330,North America,large_metropolitan
Los Angeles,Los Angeles,34.1141,-118.4068,United States,US,USA,California,,11922389.0,1840020491,North America,large_metropolitan
London,London,51.5072,-0.1275,United Kingdom,GB,GBR,"London, City of",primary,11262000.0,1826645935,North America,large_metropolitan
Paris,Paris,48.8567,2.3522,France,FR,FRA,Île-de-France,primary,11060000.0,1250015082,North America,large_metropolitan
Lima,Lima,-12.06,-77.0375,Peru,PE,PER,Lima,primary,10320000.0,1604728603,North America,large_metropolitan
Chicago,Chicago,41.8375,-87.6866,United States,US,USA,Illinois,,8497759.0,1840000494,North America,large_metropolitan
Bogotá,Bogota,4.7111,-74.0722,Colombia,CO,COL,Bogotá,primary,7968095.0,1170483426,North America,large_metropolitan
Santiago,Santiago,-33.4372,-70.6506,Chile,CL,CHL,Región Metropolitana,primary,7171000.0,1152554349,North America,large_metropolitan
Miami,Miami,25.784,-80.2101,United States,US,USA,Florida,,6080145.0,1840015149,North America,large_metropolitan
Dallas,Dallas,32.7935,-96.7667,United States,US,USA,Texas,,5830932.0,1840019440,North America,large_metropolitan
Philadelphia,Philadelphia,40.0077,-75.1339,United States,US,USA,Pennsylvania,,5683533.0,1840000673,North America,large_metropolitan
Toronto,Toronto,43.7417,-79.3733,Canada,CA,CAN,Ontario,admin,5647656.0,1124279679,North America,large_metropolitan
Monterrey,Monterrey,25.6667,-100.3,Mexico,MX,MEX,Nuevo León,admin,5341171.0,1484559591,North America,large_metropolitan
Atlanta,Atlanta,33.7628,-84.422,United States,US,USA,Georgia,admin,5180179.0,1840013660,North America,large_metropolitan
Washington,Washington,38.9047,-77.0163,United States,US,USA,District of Columbia,primary,5116378.0,1840006060,North America,large_metropolitan
Melbourne,Melbourne,-37.8142,144.9631,Australia,AU,AUS,Victoria,admin,5031195.0,1036533631,North America,large_metropolitan
Berlin,Berlin,52.52,13.405,Germany,DE,DEU,Berlin,primary,4890363.0,1276451290,North America,large_metropolitan
Boston,Boston,42.3188,-71.0852,United States,US,USA,Massachusetts,admin,4328315.0,1840000455,North America,large_metropolitan
Phoenix,Phoenix,33.5722,-112.0892,United States,US,USA,Arizona,admin,4064275.0,1840020568,North America,large_metropolitan
Detroit,Detroit,42.3834,-83.1024,United States,US,USA,Michigan,,3725908.0,1840003971,North America,large_metropolitan
Montréal,Montreal,45.5089,-73.5617,Canada,CA,CAN,Quebec,,3675219.0,1124586170,North America,large_metropolitan
Seattle,Seattle,47.6211,-122.3244,United States,US,USA,Washington,,3561397.0,1840021117,North America,large_metropolitan
Athens,Athens,37.9842,23.7281,Greece,GR,GRC,Attikí,primary,3059764.0,1300715560,North America,large_metropolitan
San Diego,San Diego,32.8313,-117.1222,United States,US,USA,California,,3046560.0,1840021990,North America,large_metropolitan
Guatemala City,Guatemala City,14.6133,-90.5353,Guatemala,GT,GTM,Guatemala,primary,3014000.0,1320197916,North America,large_metropolitan
Birmingham,Birmingham,52.48,-1.9025,United Kingdom,GB,GBR,Birmingham,,2919600.0,1826423213,North America,large_metropolitan
Minneapolis,Minneapolis,44.9635,-93.2678,United States,US,USA,Minnesota,,2892569.0,1840007830,North America,large_metropolitan
Tampa,Tampa,27.9945,-82.4447,United States,US,USA,Florida,,2861173.0,1840015982,North America,large_metropolitan
Stuttgart,Stuttgart,48.7775,9.18,Germany,DE,DEU,Baden-Württemberg,admin,2787724.0,1276171358,North America,large_metropolitan
Rome,Rome,41.8933,12.4828,Italy,IT,ITA,Lazio,primary,2748109.0,1380382862,North America,large_metropolitan
Brooklyn,Brooklyn,40.6501,-73.9496,United States,US,USA,New York,,2736074.0,1840034030,North America,large_metropolitan
Denver,Denver,39.762,-104.8758,United States,US,USA,Colorado,admin,2687458.0,1840018789,North America,large_metropolitan
Damascus,Damascus,33.5131,36.2919,Syria,SY,SYR,Dimashq,primary,2584771.0,1760685964,North America,large_metropolitan
Hamburg,Hamburg,53.55,10.0,Germany,DE,DEU,Hamburg,admin,2484800.0,1276041799,North America,large_metropolitan
Mecca,Mecca,21.4225,39.8233,Saudi Arabia,SA,SAU,Makkah al Mukarramah,admin,2427924.0,1682169241,North America,large_metropolitan
Vancouver,Vancouver,49.25,-123.1,Canada,CA,CAN,British Columbia,,2426160.0,1124825478,North America,large_metropolitan
Salvador,Salvador,-12.9747,-38.4767,Brazil,BR,BRA,Bahia,admin,2418005.0,1076923789,North America,large_metropolitan
Queens,Queens,40.7498,-73.7976,United States,US,USA,New York,,2405464.0,1840034002,North America,large_metropolitan
Riverside,Riverside,33.9381,-117.3949,United States,US,USA,California,,2332836.0,1840020551,North America,large_metropolitan
Las Vegas,Las Vegas,36.2333,-115.2654,United States,US,USA,Nevada,,2248047.0,1840020364,North America,large_metropolitan
Vienna,Vienna,48.2083,16.3725,Austria,AT,AUT,Wien,primary,2223236.0,1040261752,North America,large_metropolitan
Baltimore,Baltimore,39.3051,-76.6144,United States,US,USA,Maryland,,2196524.0,1840001592,North America,large_metropolitan
St. Louis,St. Louis,38.6359,-90.2451,United States,US,USA,Missouri,,2130881.0,1840001651,North America,large_metropolitan
Portland,Portland,45.5371,-122.65,United States,US,USA,Oregon,,2095808.0,1840019941,North America,large_metropolitan
Havana,Havana,23.1367,-82.3589,Cuba,CU,CUB,La Habana,primary,2089532.0,1192752771,North America,large_metropolitan
San Antonio,San Antonio,29.4632,-98.5238,United States,US,USA,Texas,,2058444.0,1840022220,North America,large_metropolitan
Tijuana,Tijuana,32.525,-117.0333,Mexico,MX,MEX,Baja California,minor,2002000.0,1484708778,North America,large_metropolitan
Ecatepec,Ecatepec,19.6097,-99.06,Mexico,MX,MEX,México,minor,1929926.0,1484003694,North America,large_metropolitan
Austin,Austin,30.3005,-97.7522,United States,US,USA,Texas,admin,1905945.0,1840019590,North America,large_metropolitan
Orlando,Orlando,28.4773,-81.337,United States,US,USA,Florida,,1882705.0,1840015099,North America,large_metropolitan
Warsaw,Warsaw,52.23,21.0111,Poland,PL,POL,Mazowieckie,primary,1860281.0,1616024847,North America,large_metropolitan
Pittsburgh,Pittsburgh,40.4397,-79.9763,United States,US,USA,Pennsylvania,,1749091.0,1840001254,North America,large_metropolitan
Indianapolis,Indianapolis,39.7771,-86.1458,United States,US,USA,Indiana,admin,1729849.0,1840030084,North America,large_metropolitan
Montevideo,Montevideo,-34.8836,-56.1819,Uruguay,UY,URY,Montevideo,primary,1719453.0,1858107000,North America,large_metropolitan
Manhattan,Manhattan,40.7834,-73.9662,United States,US,USA,New York,,1694263.0,1840034000,North America,large_metropolitan
Cincinnati,Cincinnati,39.1413,-84.506,United States,US,USA,Ohio,,1692702.0,1840003814,North America,large_metropolitan
Kansas City,Kansas City,39.1238,-94.5541,United States,US,USA,Missouri,,1689556.0,1840008535,North America,large_metropolitan
Tegucigalpa,Tegucigalpa,14.1058,-87.2047,Honduras,HN,HND,Francisco Morazán,primary,1682725.0,1340344059,North America,large_metropolitan
Cleveland,Cleveland,41.4764,-81.6805,United States,US,USA,Ohio,,1680247.0,1840000596,North America,large_metropolitan
León de los Aldama,Leon de los Aldama,21.1167,-101.6833,Mexico,MX,MEX,Guanajuato,minor,1579803.0,1484811199,North America,large_metropolitan
Puebla,Puebla,19.0333,-98.1833,Mexico,MX,MEX,Puebla,admin,1576259.0,1484416394,North America,large_metropolitan
Columbus,Columbus,39.9862,-82.9855,United States,US,USA,Ohio,admin,1572546.0,1840003760,North America,large_metropolitan
Panama City,Panama City,8.9833,-79.5167,Panama,PA,PAN,Panamá,primary,1500189.0,1591672475,North America,large_metropolitan
Pinsk,Pinsk,52.1153,26.1031,Belarus,BY,BLR,Brestskaya Voblasts’,minor,124613.0,1112209279,Europe,small_urban
Fano,Fano,43.8333,13.0167,Italy,IT,ITA,Marche,,59785.0,1380639425,Europe,small_urban
Drancy,Drancy,48.93,2.45,France,FR,FRA,Île-de-France,,71363.0,1250144343,Europe,small_urban
Horishni Plavni,Horishni Plavni,49.0167,33.6667,Ukraine,UA,UKR,Poltavska Oblast,,52167.0,1804828787,Europe,small_urban
Zaandam,Zaandam,52.4333,4.8333,Netherlands,NL,NLD,Noord-Holland,minor,78682.0,1528041299,Europe,small_urban
Teramo,Teramo,42.6591,13.7022,Italy,IT,ITA,Abruzzo,minor,51548.0,1380348976,Europe,small_urban
Kamensk-Ural’skiy,Kamensk-Ural'skiy,56.4,61.9333,Russia,RU,RUS,Sverdlovskaya Oblast’,,168997.0,1643640451,Europe,small_urban
Borås,Boras,57.7211,12.9403,Sweden,SE,SWE,Västra Götaland,minor,114445.0,1752555835,Europe,small_urban
Castellammare di Stabia,Castellammare di Stabia,40.6947,14.4803,Italy,IT,ITA,Campania,,62772.0,1380725803,Europe,small_urban
Uzhhorod,Uzhhorod,48.6239,22.295,Ukraine,UA,UKR,Zakarpatska Oblast,admin,115449.0,1804851697,Europe,small_urban
Nordre Fåle,Nordre Fale,59.75,10.8667,Norway,NO,NOR,Viken,,61032.0,1578002015,Europe,small_urban
Ravensburg,Ravensburg,47.7831,9.6114,Germany,DE,DEU,Baden-Württemberg,minor,51482.0,1276088263,Europe,small_urban
Pau,Pau,43.3,-0.37,France,FR,FRA,Nouvelle-Aquitaine,minor,77066.0,1250041150,Europe,small_urban
Goslar,Goslar,51.9072,10.43,Germany,DE,DEU,Lower Saxony,minor,50203.0,1276608610,Europe,small_urban
Breda,Breda,51.5889,4.7758,Netherlands,NL,NLD,Noord-Brabant,minor,184126.0,1528921549,Europe,small_urban
Fiumicino,Fiumicino,41.7667,12.2333,Italy,IT,ITA,Lazio,,81426.0,1380717773,Europe,small_urban
Siracusa,Siracusa,37.0692,15.2875,Italy,IT,ITA,Sicilia,minor,116244.0,1380071816,Europe,small_urban
Manresa,Manresa,41.7294,1.8272,Spain,ES,ESP,Catalonia,,78877.0,1724989137,Europe,small_urban
Leer,Leer,8.2979,30.1475,South Sudan,SS,SSD,Unity,,100722.0,1728110399,Europe,small_urban
Suceava,Suceava,47.6514,26.2556,Romania,RO,ROU,Suceava,admin,84322.0,1642721443,Europe,small_urban
Giurgiu,Giurgiu,43.9008,25.9739,Romania,RO,ROU,Giurgiu,admin,54551.0,1642984994,Europe,small_urban
Genk,Genk,50.9667,5.5,Belgium,BE,BEL,Flanders,,66110.0,1056555160,Europe,small_urban
Katwijk,Katwijk,52.2,4.4167,Netherlands,NL,NLD,Zuid-Holland,minor,66607.0,1528804942,Europe,small_urban
Przemyśl,Przemysl,49.7833,22.7667,Poland,PL,POL,Podkarpackie,minor,58408.0,1616506094,Europe,small_urban
Trnava,Trnava,48.3775,17.5883,Slovakia,SK,SVK,Trnava,admin,63803.0,1703497997,Europe,small_urban
Vyborg,Vyborg,60.7167,28.7667,Russia,RU,RUS,Leningradskaya Oblast’,minor,71772.0,1643778472,Europe,small_urban
Amadora,Amadora,38.7333,-9.2333,Portugal,PT,PRT,Lisboa,minor,175136.0,1620896557,Europe,small_urban
Quartu Sant’Elena,Quartu Sant'Elena,39.2333,9.1833,Italy,IT,ITA,Sardegna,,68585.0,1380157297,Europe,small_urban
Euskirchen,Euskirchen,50.6597,6.7917,Germany,DE,DEU,North Rhine-Westphalia,minor,59772.0,1276782162,Europe,small_urban
Faenza,Faenza,44.2856,11.8833,Italy,IT,ITA,Emilia-Romagna,,58710.0,1380236916,Europe,small_urban
Grays,Grays,51.475,0.33,United Kingdom,GB,GBR,Thurrock,,66843.0,1826003493,Europe,small_urban
Penafiel,Penafiel,41.206,-8.284,Portugal,PT,PRT,Porto,minor,72265.0,1620996272,Europe,small_urban
Wilmington,Wilmington,39.7415,-75.5416,United States,US,USA,Delaware,,71034.0,1840005579,Europe,small_urban
Halmstad,Halmstad,56.6739,12.8572,Sweden,SE,SWE,Halland,admin,71422.0,1752392511,Europe,small_urban
Noyabrsk,Noyabrsk,63.2,75.45,Russia,RU,RUS,Yamalo-Nenetskiy Avtonomnyy Okrug,,106879.0,1643340196,Europe,small_urban
Düren,Duren,50.8,6.4833,Germany,DE,DEU,North Rhine-Westphalia,minor,93207.0,1276181957,Europe,small_urban
Ródos,Rodos,36.4412,28.2225,Greece,GR,GRC,Nótio Aigaío,minor,56969.0,1300944675,Europe,small_urban
Solnechnogorsk,Solnechnogorsk,56.1833,36.9833,Russia,RU,RUS,Moskovskaya Oblast’,minor,51612.0,1643958876,Europe,small_urban
Dordrecht,Dordrecht,51.7958,4.6783,Netherlands,NL,NLD,Zuid-Holland,minor,121434.0,1528952691,Europe,small_urban
Chaykovskiy,Chaykovskiy,56.7667,54.15,Russia,RU,RUS,Permskiy Kray,,82382.0,1643089795,Europe,small_urban
Hilden,Hilden,51.1714,6.9394,Germany,DE,DEU,North Rhine-Westphalia,,55815.0,1276577152,Europe,small_urban
Lünen,Lunen,51.6167,7.5167,Germany,DE,DEU,North Rhine-Westphalia,,86868.0,1276959723,Europe,small_urban
Marl,Marl,51.6667,7.1167,Germany,DE,DEU,North Rhine-Westphalia,,84331.0,1276451667,Europe,small_urban
Leeuwarden,Leeuwarden,53.2,5.7833,Netherlands,NL,NLD,Fryslân,admin,124481.0,1528992603,Europe,small_urban
Darmstadt,Darmstadt,49.8722,8.6528,Germany,DE,DEU,Hesse,minor,162243.0,1276607395,Europe,small_urban
Alcalá de Guadaira,Alcala de Guadaira,37.3333,-5.85,Spain,ES,ESP,Andalusia,,76547.0,1724537443,Europe,small_urban
Fréjus,Frejus,43.433,6.737,France,FR,FRA,Provence-Alpes-Côte d’Azur,,57082.0,1250083981,Europe,small_urban
Novocheboksarsk,Novocheboksarsk,56.1333,47.5,Russia,RU,RUS,Chuvashiya,,126626.0,1643839131,Europe,small_urban
Sibay,Sibay,52.7,58.65,Russia,RU,RUS,Bashkortostan,,61266.0,1643012532,Europe,small_urban
Weston-super-Mare,Weston-super-Mare,51.346,-2.977,United Kingdom,GB,GBR,North Somerset,,76143.0,1826189795,Europe,small_urban
Pyatigorsk,Pyatigorsk,44.05,43.0667,Russia,RU,RUS,Stavropol’skiy Kray,minor,145836.0,1643815630,Europe,small_urban
Guadalajara,Guadalajara,40.6337,-3.1674,Spain,ES,ESP,Castille-La Mancha,minor,161683.0,1724317859,Europe,small_urban
Deurne,Deurne,51.2247,4.4625,Belgium,BE,BEL,Flanders,,82270.0,1056636125,Europe,small_urban
Batley,Batley,53.7167,-1.6356,United Kingdom,GB,GBR,Kirklees,,80485.0,1826037459,Europe,small_urban
Split,Split,43.51,16.44,Croatia,HR,HRV,Splitsko-Dalmatinska Županija,admin,160577.0,1191440208,Europe,small_urban
Eastleigh,Eastleigh,50.9667,-1.35,United Kingdom,GB,GBR,Hampshire,,78716.0,1826595228,Europe,small_urban
Trier,Trier,49.7567,6.6414,Germany,DE,DEU,Rhineland-Palatinate,minor,112195.0,1276211430,Europe,small_urban
Jūrmala,Jurmala,56.9681,23.7703,Latvia,LV,LVA,Jūrmala,admin,51158.0,1428952300,Europe,small_urban
Ahlen,Ahlen,51.7633,7.8911,Germany,DE,DEU,North Rhine-Westphalia,,53348.0,1276843072,Europe,small_urban
Mineral’nyye Vody,Mineral'nyye Vody,44.2167,43.1333,Russia,RU,RUS,Stavropol’skiy Kray,minor,73925.0,1643357328,Europe,small_urban
Podgorica,Podgorica,42.4414,19.2628,Montenegro,ME,MNE,Podgorica,primary,173024.0,1499454516,Europe,small_urban
Mora,Mora,10.0088,-84.0216,Costa Rica,CR,CRI,Heredia,,56919.0,1188001388,Europe,small_urban
Bergheim,Bergheim,50.9667,6.65,Germany,DE,DEU,North Rhine-Westphalia,minor,62376.0,1276980188,Europe,small_urban
Shali,Shali,43.15,45.9,Russia,RU,RUS,Chechnya,minor,56226.0,1643096920,Europe,small_urban
Garbsen,Garbsen,52.4183,9.5981,Germany,DE,DEU,Lower Saxony,,61349.0,1276318243,Europe,small_urban
Kortrijk,Kortrijk,50.8275,3.2658,Belgium,BE,BEL,Flanders,minor,77741.0,1056702614,Europe,small_urban
Rybnik,Rybnik,50.0833,18.55,Poland,PL,POL,Śląskie,minor,133772.0,1616092098,Europe,small_urban
Collado-Villalba,Collado-Villalba,40.6333,-4.0083,Spain,ES,ESP,Madrid,,65657.0,1724645759,Europe,small_urban
Lelystad,Lelystad,52.5,5.4833,Netherlands,NL,NLD,Flevoland,admin,83033.0,1528990721,Europe,small_urban
Doncaster,Doncaster,53.5231,-1.1339,United Kingdom,GB,GBR,Doncaster,,109805.0,1826979494,Europe,small_urban
Ovar,Ovar,40.8667,-8.6333,Portugal,PT,PRT,Aveiro,minor,55398.0,1620832613,Europe,small_urban
Lucerne,Lucerne,47.05,8.3,Switzerland,CH,CHE,Luzern,admin,81691.0,1756544536,Europe,small_urban
Gllogovc,Gllogovc,42.6236,20.8939,Kosovo,XK,XKS,Gllogovc,admin,58531.0,1901031751,Europe,small_urban
Ussuriysk,Ussuriysk,43.8,131.9667,Russia,RU,RUS,Primorskiy Kray,,170660.0,1643001263,Europe,small_urban
Alphen aan den Rijn,Alphen aan den Rijn,52.1333,4.6667,Netherlands,NL,NLD,Zuid-Holland,minor,114182.0,1528593016,Europe,small_urban
Littlehampton,Littlehampton,50.8094,-0.5409,United Kingdom,GB,GBR,West Sussex,,58357.0,1826096073,Europe,small_urban
Gallarate,Gallarate,45.6667,8.8,Italy,IT,ITA,Lombardy,,52811.0,1380947310,Europe,small_urban
Kansk,Kansk,56.2,95.7167,Russia,RU,RUS,Krasnoyarskiy Kray,,88917.0,1643874419,Europe,small_urban
Kuznetsk,Kuznetsk,53.1167,46.6,Russia,RU,RUS,Penzenskaya Oblast’,,82276.0,1643787798,Europe,small_urban
Syzran,Syzran,53.1667,48.4667,Russia,RU,RUS,Samarskaya Oblast’,,173260.0,1643711617,Europe,small_urban
Bāri,Bari,26.63,77.62,India,IN,IND,Rājasthān,,62721.0,1356361109,Europe,small_urban
Alkmaar,Alkmaar,52.6333,4.75,Netherlands,NL,NLD,Noord-Holland,minor,111766.0,1528566376,Europe,small_urban
Tübingen,Tubingen,48.52,9.0556,Germany,DE,DEU,Baden-Württemberg,minor,92811.0,1276203240,Europe,small_urban
Frankfurt (Oder),Frankfurt (Oder),52.3419,14.5517,Germany,DE,DEU,Brandenburg,minor,58230.0,1276397323,Europe,small_urban
Deva,Deva,45.8781,22.9144,Romania,RO,ROU,Hunedoara,,53113.0,1642728479,Europe,small_urban
Gatchina,Gatchina,59.5833,30.1333,Russia,RU,RUS,Leningradskaya Oblast’,admin,94447.0,1643318154,Europe,small_urban
Włocławek,Wloclawek,52.6592,19.0681,Poland,PL,POL,Kujawsko-Pomorskie,minor,104705.0,1616143097,Europe,small_urban
Mikhaylovsk,Mikhaylovsk,45.1333,42.0333,Russia,RU,RUS,Stavropol’skiy Kray,,93658.0,1643773075,Europe,small_urban
Voskresensk,Voskresensk,55.3167,38.7,Russia,RU,RUS,Moskovskaya Oblast’,minor,92023.0,1643351541,Europe,small_urban
Eger,Eger,47.899,20.3747,Hungary,HU,HUN,Heves,admin,50018.0,1348559499,Europe,small_urban
Satu Mare,Satu Mare,47.79,22.89,Romania,RO,ROU,Satu Mare,admin,91520.0,1642046798,Europe,small_urban
Almetyevsk,Almetyevsk,54.9,52.3,Russia,RU,RUS,Tatarstan,,155988.0,1643421011,Europe,small_urban
Beveren,Beveren,51.2,4.25,Belgium,BE,BEL,Flanders,,50281.0,1056581431,Europe,small_urban
Târgu Jiu,Targu Jiu,45.0342,23.2747,Romania,RO,ROU,Gorj,admin,73545.0,1642174891,Europe,small_urban
Guildford,Guildford,51.2365,-0.5703,United Kingdom,GB,GBR,Surrey,,77057.0,1826863533,Europe,small_urban
Hoofddorp,Hoofddorp,52.3061,4.6907,Netherlands,NL,NLD,Noord-Holland,minor,77885.0,1528519634,Europe,small_urban
Dunfermline,Dunfermline,56.0719,-3.4393,United Kingdom,GB,GBR,Fife,,53100.0,1826424354,Europe,small_urban
Salerno,Salerno,40.6806,14.7594,Italy,IT,ITA,Campania,minor,127186.0,1380863448,Europe,small_urban
Macclesfield,Macclesfield,53.25,-2.13,United Kingdom,GB,GBR,Cheshire East,,56581.0,1826522277,Europe,small_urban
Yambol,Yambol,42.4833,26.5,Bulgaria,BG,BGR,Yambol,admin,70588.0,1100748067,Europe,small_urban
Royal Tunbridge Wells,Royal Tunbridge Wells,51.132,0.263,United Kingdom,GB,GBR,Kent,,57772.0,1826011948,Europe,small_urban
Urus-Martan,Urus-Martan,43.1333,45.55,Russia,RU,RUS,Chechnya,minor,59954.0,1643013764,Europe,small_urban
Sérres,Serres,41.0833,23.55,Greece,GR,GRC,Kentrikí Makedonía,minor,59260.0,1300726987,Europe,small_urban
Castries,Castries,14.0167,-60.9833,Saint Lucia,LC,LCA,Castries,primary,70000.0,1662922505,Europe,small_urban
Reutov,Reutov,55.7622,37.8567,Russia,RU,RUS,Moskovskaya Oblast’,minor,106990.0,1643138327,Europe,small_urban
Kavála,Kavala,40.9333,24.4,Greece,GR,GRC,Anatolikí Makedonía kai Thráki,minor,65857.0,1300398756,Europe,small_urban
Tobolsk,Tobolsk,58.2,68.2667,Russia,RU,RUS,Tyumenskaya Oblast’,,98886.0,1643201261,Europe,small_urban
Champigny-sur-Marne,Champigny-sur-Marne,48.8172,2.5156,France,FR,FRA,Île-de-France,,77724.0,1250631569,Europe,small_urban
Durrës,Durres,41.3133,19.4458,Albania,AL,ALB,Durrës,admin,175110.0,1008173690,Europe,small_urban
Aix-en-Provence,Aix-en-Provence,43.5263,5.4454,France,FR,FRA,Provence-Alpes-Côte d’Azur,minor,147478.0,1250001687,Europe,small_urban
San Remo,San Remo,43.8175,7.775,Italy,IT,ITA,Liguria,,52787.0,1380767686,Europe,small_urban
Braga,Braga,41.5503,-8.42,Portugal,PT,PRT,Braga,admin,181494.0,1620949401,Europe,small_urban
Hamm,Hamm,51.6667,7.8167,Germany,DE,DEU,North Rhine-Westphalia,minor,180849.0,1276808737,Europe,small_urban
Tuzla,Tuzla,44.5381,18.6761,Bosnia and Herzegovina,BA,BIH,"Bosnia and Herzegovina, Federation of",minor,110979.0,1070117835,Europe,small_urban
Moortebeek,Moortebeek,50.8547,4.3386,Belgium,BE,BEL,Flanders,,97979.0,1056103437,Europe,small_urban
Molina de Segura,Molina de Segura,38.0548,-1.2131,Spain,ES,ESP,Murcia,,76074.0,1724074824,Europe,small_urban
Santo Tirso,Santo Tirso,41.3333,-8.4667,Portugal,PT,PRT,Porto,minor,71530.0,1620557735,Europe,small_urban
La Laguna,La Laguna,28.4853,-16.3167,Spain,ES,ESP,Canary Islands,,159034.0,1724625025,Europe,small_urban
Wałbrzych,Walbrzych,50.7667,16.2833,Poland,PL,POL,Dolnośląskie,minor,104401.0,1616162263,Europe,small_urban
Bayeux,Bayeux,-7.1333,-34.9333,Brazil,BR,BRA,Paraíba,minor,82742.0,1076607187,Europe,small_urban
Ponta Delgada,Ponta Delgada,37.7411,-25.6806,Portugal,PT,PRT,Azores,admin,68809.0,1620456537,Europe,small_urban
Offenburg,Offenburg,48.4667,7.9333,Germany,DE,DEU,Baden-Württemberg,minor,61670.0,1276214401,Europe,small_urban
Leverkusen,Leverkusen,51.0333,6.9833,Germany,DE,DEU,North Rhine-Westphalia,minor,165748.0,1276002465,Europe,small_urban
Örebro,Orebro,59.2739,15.2075,Sweden,SE,SWE,Örebro,admin,126604.0,1752223019,Europe,small_urban
La Línea de la Concepción,La Linea de la Concepcion,36.1681,-5.3486,Spain,ES,ESP,Andalusia,,63773.0,1724170346,Europe,small_urban
Valjevo,Valjevo,44.2667,19.8833,Serbia,RS,SRB,Valjevo,admin,90312.0,1688926375,Europe,small_urban
Umán,Uman,20.8833,-89.75,Mexico,MX,MEX,Yucatán,,50993.0,1484028324,Europe,small_urban
Roquetas de Mar,Roquetas de Mar,36.7642,-2.6147,Spain,ES,ESP,Andalusia,,106510.0,1724749177,Europe,small_urban
Blackburn,Blackburn,53.748,-2.482,United Kingdom,GB,GBR,Blackburn with Darwen,,117963.0,1826802533,Europe,small_urban
Slough,Slough,51.5084,-0.5881,United Kingdom,GB,GBR,Slough,,119070.0,1826807636,Europe,small_urban
Passau,Passau,48.5744,13.4647,Germany,DE,DEU,Bavaria,minor,53907.0,1276123699,Europe,small_urban
Vaasa,Vaasa,63.1,21.6167,Finland,FI,FIN,Pohjanmaa,admin,67619.0,1246734710,Europe,small_urban
Aylesbury,Aylesbury,51.8168,-0.8124,United Kingdom,GB,GBR,Buckinghamshire,,83407.0,1826391298,Europe,small_urban
Frechen,Frechen,50.9167,6.8167,Germany,DE,DEU,North Rhine-Westphalia,,52811.0,1276255319,Europe,small_urban
Sievierodonetsk,Sievierodonetsk,48.9481,38.4933,Ukraine,UA,UKR,Luhanska Oblast,minor,150000.0,1804577024,Europe,small_urban
Sarapul,Sarapul,56.4667,53.8,Russia,RU,RUS,Udmurtiya,minor,97910.0,1643320672,Europe,small_urban
Houten,Houten,52.0333,5.1667,Netherlands,NL,NLD,Utrecht,minor,50223.0,1528005173,Europe,small_urban
Borovichi,Borovichi,58.4,33.9167,Russia,RU,RUS,Novgorodskaya Oblast’,minor,50144.0,1643059892,Europe,small_urban
Maykop,Maykop,44.6,40.0833,Russia,RU,RUS,Adygeya,admin,139084.0,1643584159,Europe,small_urban
Bytom,Bytom,50.3483,18.9156,Poland,PL,POL,Śląskie,minor,153274.0,1616740907,Europe,small_urban
Zamora,Zamora,41.4989,-5.7556,Spain,ES,ESP,Castille-Leon,minor,59259.0,1724611317,Europe,small_urban
Pula,Pula,44.8703,13.8456,Croatia,HR,HRV,Istarska Županija,minor,52220.0,1191143009,Europe,small_urban
Aalen,Aalen,48.8333,10.1,Germany,DE,DEU,Baden-Württemberg,minor,68816.0,1276757787,Europe,small_urban
Woerden,Woerden,52.0833,4.8833,Netherlands,NL,NLD,Utrecht,minor,52694.0,1528805215,Europe,small_urban
Utrera,Utrera,37.183,-5.767,Spain,ES,ESP,Andalusia,,51718.0,1724187644,Europe,small_urban
Stargard Szczeciński,Stargard Szczecinski,53.3333,15.0333,Poland,PL,POL,Zachodniopomorskie,minor,67348.0,1616480646,Europe,small_urban
Wigan,Wigan,53.5448,-2.6318,United Kingdom,GB,GBR,Wigan,,103608.0,1826902223,Europe,small_urban
Leiden,Leiden,52.16,4.49,Netherlands,NL,NLD,Zuid-Holland,minor,124093.0,1528966223,Europe,small_urban
Kumanovo,Kumanovo,42.1322,21.7144,North Macedonia,MK,MKD,Kumanovo,admin,70842.0,1807301219,Europe,small_urban
Paredes,Paredes,41.2064,-8.3333,Portugal,PT,PRT,Porto,minor,86854.0,1620650523,Europe,small_urban
Zapopan,Zapopan,20.7167,-103.4,Mexico,MX,MEX,Jalisco,minor,1476491.0,1484198680,North America,metropolitan
Bronx,Bronx,40.8501,-73.8662,United States,US,USA,New York,,1472654.0,1840033999,North America,metropolitan
Amsterdam,Amsterdam,52.3728,4.8936,Netherlands,NL,NLD,Noord-Holland,primary,1459402.0,1528355309,North America,metropolitan
Virginia Beach,Virginia Beach,36.7335,-76.0435,United States,US,USA,Virginia,,1443020.0,1840003871,North America,metropolitan
Charlotte,Charlotte,35.2083,-80.8303,United States,US,USA,North Carolina,,1427444.0,1840014557,North America,metropolitan
Medina,Medina,24.47,39.61,Saudi Arabia,SA,SAU,Al Madīnah al Munawwarah,admin,1411599.0,1682345785,North America,metropolitan
Milan,Milan,45.4669,9.19,Italy,IT,ITA,Lombardy,admin,1354196.0,1380724377,North America,metropolitan
Santiago,Santiago,19.4572,-70.6889,Dominican Republic,DO,DOM,Cibao Norte,admin,1343423.0,1214985348,North America,metropolitan
Juárez,Juarez,31.745,-106.485,Mexico,MX,MEX,Chihuahua,minor,1321004.0,1484840083,North America,metropolitan
Calgary,Calgary,51.05,-114.0667,Canada,CA,CAN,Alberta,,1306784.0,1124690423,North America,metropolitan
Milwaukee,Milwaukee,43.0642,-87.9675,United States,US,USA,Wisconsin,,1290940.0,1840003046,North America,metropolitan
Providence,Providence,41.823,-71.4187,United States,US,USA,Rhode Island,admin,1290271.0,1840003289,North America,metropolitan
Jacksonville,Jacksonville,30.3322,-81.6749,United States,US,USA,Florida,,1288298.0,1840015031,North America,metropolitan
Dublin,Dublin,53.35,-6.2603,Ireland,IE,IRL,Dublin,primary,1263219.0,1372595407,North America,metropolitan
Comayagüela,Comayaguela,14.098,-87.21,Honduras,HN,HND,Francisco Morazán,,1250000.0,1340762485,North America,metropolitan
Belgrade,Belgrade,44.82,20.46,Serbia,RS,SRB,Beograd,primary,1197714.0,1688374696,North America,metropolitan
Nashville,Nashville,36.1715,-86.7842,United States,US,USA,Tennessee,admin,1177657.0,1840036155,North America,metropolitan
Salt Lake City,Salt Lake City,40.7776,-111.9311,United States,US,USA,Utah,admin,1173879.0,1840021383,North America,metropolitan
Raleigh,Raleigh,35.8324,-78.6429,United States,US,USA,North Carolina,admin,1163152.0,1840014497,North America,metropolitan
Edmonton,Edmonton,53.5344,-113.4903,Canada,CA,CAN,Alberta,admin,1151635.0,1124290735,North America,metropolitan
Mexicali,Mexicali,32.6633,-115.4678,Mexico,MX,MEX,Baja California,admin,1102342.0,1484788702,North America,metropolitan
Nezahualcóyotl,Nezahualcoyotl,19.4081,-99.0186,Mexico,MX,MEX,México,minor,1077208.0,1484074285,North America,metropolitan
Richmond,Richmond,37.5295,-77.4756,United States,US,USA,Virginia,admin,1073223.0,1840001698,North America,metropolitan
Ciudad Nezahualcóyotl,Ciudad Nezahualcoyotl,19.4006,-99.0148,Mexico,MX,MEX,México,,1072676.0,1484016661,North America,metropolitan
Ottawa,Ottawa,45.4247,-75.695,Canada,CA,CAN,Ontario,primary,1068821.0,1124399363,North America,metropolitan
Managua,Managua,12.1364,-86.2514,Nicaragua,NI,NIC,Managua,primary,1051236.0,1558296252,North America,metropolitan
Memphis,Memphis,35.1087,-89.9663,United States,US,USA,Tennessee,,1037998.0,1840015457,North America,metropolitan
Monrovia,Monrovia,6.3133,-10.8014,Liberia,LR,LBR,Montserrado,primary,1021762.0,1430477826,North America,metropolitan
San Cristóbal,San Cristobal,7.7667,-72.2333,Venezuela,VE,VEN,Táchira,admin,1015623.0,1862252264,North America,metropolitan
Morelia,Morelia,19.7683,-101.1894,Mexico,MX,MEX,Michoacán,admin,1011704.0,1484669072,North America,metropolitan
Oklahoma City,Oklahoma City,35.4676,-97.5136,United States,US,USA,Oklahoma,admin,998806.0,1840020428,North America,metropolitan
Port-au-Prince,Port-au-Prince,18.5333,-72.3333,Haiti,HT,HTI,Ouest,primary,987310.0,1332401940,North America,metropolitan
Hartford,Hartford,41.7661,-72.6834,United States,US,USA,Connecticut,admin,974684.0,1840004773,North America,metropolitan
Louisville,Louisville,38.1663,-85.6485,United States,US,USA,Kentucky,,963812.0,1840030815,North America,metropolitan
Freetown,Freetown,8.4844,-13.2344,Sierra Leone,SL,SLE,Western Area,primary,951000.0,1694085071,North America,metropolitan
Buffalo,Buffalo,42.9018,-78.8487,United States,US,USA,New York,,944589.0,1840000386,North America,metropolitan
Aguascalientes,Aguascalientes,21.876,-102.296,Mexico,MX,MEX,Aguascalientes,admin,934424.0,1484666646,North America,metropolitan
New Orleans,New Orleans,30.0687,-89.9288,United States,US,USA,Louisiana,,932759.0,1840001839,North America,metropolitan
Fort Worth,Fort Worth,32.7817,-97.3474,United States,US,USA,Texas,,924663.0,1840020696,North America,metropolitan
Riga,Riga,56.9489,24.1064,Latvia,LV,LVA,Rīga,primary,920643.0,1428586192,North America,metropolitan
Naples,Naples,40.8333,14.25,Italy,IT,ITA,Campania,admin,913462.0,1380646673,North America,metropolitan
Naucalpan de Juárez,Naucalpan de Juarez,19.4753,-99.2378,Mexico,MX,MEX,México,minor,910407.0,1484850125,North America,metropolitan
Bridgeport,Bridgeport,41.1918,-73.1954,United States,US,USA,Connecticut,,908251.0,1840004836,North America,metropolitan
Cancún,Cancun,21.1606,-86.8475,Mexico,MX,MEX,Quintana Roo,minor,888797.0,1484010310,North America,metropolitan
Tucson,Tucson,32.1541,-110.8787,United States,US,USA,Arizona,,878320.0,1840022101,North America,metropolitan
Chihuahua,Chihuahua,28.6369,-106.0769,Mexico,MX,MEX,Chihuahua,admin,878062.0,1484335603,North America,metropolitan
Saltillo,Saltillo,25.4231,-100.9919,Mexico,MX,MEX,Coahuila,admin,864431.0,1484107245,North America,metropolitan
El Dorado,El Dorado,24.808,-107.397,Mexico,MX,MEX,Sinaloa,,858638.0,1484719986,North America,metropolitan
Portsmouth,Portsmouth,50.8058,-1.0872,United Kingdom,GB,GBR,Portsmouth,,855679.0,1826964096,North America,metropolitan
Southampton,Southampton,50.9025,-1.4042,United Kingdom,GB,GBR,Southampton,,855569.0,1826602892,North America,metropolitan
Hermosillo,Hermosillo,29.0989,-110.9542,Mexico,MX,MEX,Sonora,admin,855563.0,1484015319,North America,metropolitan
Omaha,Omaha,41.2627,-96.0529,United States,US,USA,Nebraska,,821345.0,1840009315,North America,metropolitan
Culiacán,Culiacan,24.8069,-107.3939,Mexico,MX,MEX,Sinaloa,admin,808416.0,1484516810,North America,metropolitan
Querétaro,Queretaro,20.5875,-100.3928,Mexico,MX,MEX,Querétaro,admin,801940.0,1484604775,North America,metropolitan
Palermo,Palermo,2.8917,-75.4375,Colombia,CO,COL,Huila,minor,800000.0,1170614290,North America,metropolitan
McAllen,McAllen,26.2252,-98.2467,United States,US,USA,Texas,,797341.0,1840021024,North America,metropolitan
San Pedro Sula,San Pedro Sula,15.5,-88.0333,Honduras,HN,HND,Cortés,admin,793835.0,1340568412,North America,metropolitan
Hempstead,Hempstead,40.6629,-73.6089,United States,US,USA,New York,,789763.0,1840005293,North America,metropolitan
Leeds,Leeds,53.7975,-1.5436,United Kingdom,GB,GBR,Leeds,,789194.0,1826343963,North America,metropolitan
Birmingham,Birmingham,33.5279,-86.7971,United States,US,USA,Alabama,,782111.0,1840006507,North America,metropolitan
San Luis Potosí,San Luis Potosi,22.1511,-100.9761,Mexico,MX,MEX,San Luis Potosí,admin,772828.0,1484583620,North America,metropolitan
Albuquerque,Albuquerque,35.1054,-106.6465,United States,US,USA,New Mexico,,769986.0,1840019176,North America,metropolitan
Winnipeg,Winnipeg,49.8844,-97.1464,Canada,CA,CAN,Manitoba,admin,758515.0,1124224963,North America,metropolitan
Kermān,Kerman,30.2911,57.0678,Iran,IR,IRN,Kermān,admin,738374.0,1364554896,North America,metropolitan
Quebec City,Quebec City,46.8139,-71.2081,Canada,CA,CAN,Quebec,admin,733156.0,1124823933,North America,metropolitan
Tulsa,Tulsa,36.1283,-95.9042,United States,US,USA,Oklahoma,,731743.0,1840021672,North America,metropolitan
Nottingham,Nottingham,52.9561,-1.1512,United Kingdom,GB,GBR,Nottingham,,729977.0,1826122597,North America,metropolitan
Hamilton,Hamilton,43.2567,-79.8692,Canada,CA,CAN,Ontario,,729560.0,1124567288,North America,metropolitan
Fresno,Fresno,36.783,-119.7939,United States,US,USA,California,,725276.0,1840020319,North America,metropolitan
Mississauga,Mississauga,43.6,-79.65,Canada,CA,CAN,Ontario,,717961.0,1124112672,North America,metropolitan
Bristol,Bristol,51.4536,-2.5975,United Kingdom,GB,GBR,"Bristol, City of",,707412.0,1826921049,North America,metropolitan
Charleston,Charleston,32.8168,-79.9687,United States,US,USA,South Carolina,,706884.0,1840015163,North America,metropolitan
Rochester,Rochester,43.168,-77.6162,United States,US,USA,New York,,699921.0,1840000373,North America,metropolitan
Salem,Salem,11.65,78.15,India,IN,IND,Tamil Nādu,,693236.0,1356567087,North America,metropolitan
Zaragoza,Zaragoza,41.65,-0.8833,Spain,ES,ESP,Aragon,admin,682513.0,1724907391,North America,metropolitan
Acapulco de Juárez,Acapulco de Juarez,16.8636,-99.8825,Mexico,MX,MEX,Guerrero,minor,673478.0,1484463183,North America,metropolitan
Dayton,Dayton,39.7805,-84.2003,United States,US,USA,Ohio,,668825.0,1840034249,North America,metropolitan
Rotterdam,Rotterdam,51.92,4.48,Netherlands,NL,NLD,Zuid-Holland,minor,664311.0,1528892850,North America,metropolitan
Tlaquepaque,Tlaquepaque,20.6167,-103.3167,Mexico,MX,MEX,Jalisco,minor,664193.0,1484087945,North America,metropolitan
Brampton,Brampton,43.6833,-79.7667,Canada,CA,CAN,Ontario,,656480.0,1124625989,North America,metropolitan
Durango,Durango,24.025,-104.6675,Mexico,MX,MEX,Durango,admin,654876.0,1484854616,North America,metropolitan
Cape Coral,Cape Coral,26.6443,-81.9957,United States,US,USA,Florida,,654405.0,1840015130,North America,metropolitan
Tlalnepantla,Tlalnepantla,19.5367,-99.1947,Mexico,MX,MEX,México,minor,653410.0,1484861603,North America,metropolitan
Mission Viejo,Mission Viejo,33.6096,-117.6551,United States,US,USA,California,,642211.0,1840020580,North America,metropolitan
Colorado Springs,Colorado Springs,38.8674,-104.7605,United States,US,USA,Colorado,,638194.0,1840018825,North America,metropolitan
Baton Rouge,Baton Rouge,30.442,-91.1311,United States,US,USA,Louisiana,admin,635671.0,1840013941,North America,metropolitan
Palermo,Palermo,38.1111,13.3517,Italy,IT,ITA,Sicilia,admin,630167.0,1380428434,North America,metropolitan
Allentown,Allentown,40.5961,-75.4756,United States,US,USA,Pennsylvania,,627863.0,1840001044,North America,metropolitan
Ogden,Ogden,41.2279,-111.9682,United States,US,USA,Utah,,622918.0,1840020135,North America,metropolitan
Provo,Provo,40.2457,-111.6457,United States,US,USA,Utah,,619218.0,1840020174,North America,metropolitan
Knoxville,Knoxville,35.9692,-83.9496,United States,US,USA,Tennessee,,615829.0,1840014486,North America,metropolitan
Chimalhuacán,Chimalhuacan,19.4167,-98.9,Mexico,MX,MEX,México,minor,614453.0,1484504936,North America,metropolitan
Grand Rapids,Grand Rapids,42.9619,-85.6562,United States,US,USA,Michigan,,609023.0,1840002928,North America,metropolitan
Columbia,Columbia,34.0378,-80.9036,United States,US,USA,South Carolina,admin,604065.0,1840014730,North America,metropolitan
Irapuato,Irapuato,20.6667,-101.35,Mexico,MX,MEX,Guanajuato,minor,592953.0,1484625454,North America,metropolitan
Reynosa,Reynosa,26.0922,-98.2778,Mexico,MX,MEX,Tamaulipas,minor,589466.0,1484737671,North America,metropolitan
Kingston,Kingston,17.9714,-76.7931,Jamaica,JM,JAM,Kingston,primary,580000.0,1388709177,North America,metropolitan
Tuxtla,Tuxtla,16.7528,-93.1167,Mexico,MX,MEX,Chiapas,admin,578830.0,1484832519,North America,metropolitan
Bakersfield,Bakersfield,35.3529,-119.0359,United States,US,USA,California,,571992.0,1840019148,North America,metropolitan
Tonalá,Tonala,20.6167,-103.2333,Mexico,MX,MEX,Jalisco,minor,569913.0,1484750897,North America,metropolitan
Bremen,Bremen,53.0758,8.8072,Germany,DE,DEU,Bremen,admin,569396.0,1276376509,North America,metropolitan
Surrey,Surrey,49.19,-122.8489,Canada,CA,CAN,British Columbia,,568322.0,1124001454,North America,metropolitan
New Haven,New Haven,41.3113,-72.9246,United States,US,USA,Connecticut,,565572.0,1840004850,North America,metropolitan
Genoa,Genoa,44.4111,8.9328,Italy,IT,ITA,Liguria,admin,558745.0,1380716540,North America,metropolitan
Cuautitlán Izcalli,Cuautitlan Izcalli,19.65,-99.25,Mexico,MX,MEX,México,minor,555163.0,1484282338,North America,metropolitan
Des Moines,Des Moines,41.5725,-93.6105,United States,US,USA,Iowa,admin,548926.0,1840007069,North America,metropolitan
Lisbon,Lisbon,38.7253,-9.15,Portugal,PT,PRT,Lisboa,primary,548703.0,1620619017,North America,metropolitan
Manchester,Manchester,53.479,-2.2452,United Kingdom,GB,GBR,Manchester,,547627.0,1826246335,North America,metropolitan
Ixtapaluca,Ixtapaluca,19.3186,-98.8822,Mexico,MX,MEX,México,minor,542211.0,1484452937,North America,metropolitan
Heroica Matamoros,Heroica Matamoros,25.8797,-97.5042,Mexico,MX,MEX,Tamaulipas,minor,541979.0,1484614906,North America,metropolitan
Akron,Akron,41.0798,-81.5219,United States,US,USA,Ohio,,541945.0,1840000791,North America,metropolitan
Palm Bay,Palm Bay,27.9631,-80.6593,United States,US,USA,Florida,,534348.0,1840015094,North America,metropolitan
Concord,Concord,37.9722,-122.0016,United States,US,USA,California,,531175.0,1840018905,North America,metropolitan
Ciudad Apodaca,Ciudad Apodaca,25.7817,-100.1886,Mexico,MX,MEX,Nuevo León,minor,523370.0,1484855080,North America,metropolitan
Kitchener,Kitchener,43.4186,-80.4728,Canada,CA,CAN,Ontario,,522888.0,1124158530,North America,metropolitan
Tultitlán de Mariano Escobedo,Tultitlan de Mariano Escobedo,19.645,-99.1694,Mexico,MX,MEX,México,minor,520557.0,1484562374,North America,metropolitan
Sheffield,Sheffield,53.3808,-1.4703,United Kingdom,GB,GBR,Sheffield,,518090.0,1826289852,North America,metropolitan
Carrefour,Carrefour,18.5344,-72.4094,Haiti,HT,HTI,Ouest,,511345.0,1332000098,North America,metropolitan
Wichita,Wichita,37.6895,-97.3443,United States,US,USA,Kansas,,509003.0,1840001686,North America,metropolitan
Leicester,Leicester,52.6344,-1.1319,United Kingdom,GB,GBR,Leicester,,508916.0,1826431946,North America,metropolitan
Newcastle,Newcastle,-27.7464,29.9328,South Africa,ZA,ZAF,KwaZulu-Natal,,507710.0,1710031016,North America,metropolitan
Mesa,Mesa,33.4015,-111.7178,United States,US,USA,Arizona,,503390.0,1840020566,North America,metropolitan
Mazatlán,Mazatlan,23.2167,-106.4167,Mexico,MX,MEX,Sinaloa,minor,501441.0,1484841466,North America,metropolitan
Sydney,Sydney,-33.8678,151.21,Australia,AU,AUS,New South Wales,admin,4840600.0,1036074917,Oceania,large_metropolitan
Brisbane,Brisbane,-27.4678,153.0281,Australia,AU,AUS,Queensland,admin,2360241.0,1036192929,Oceania,large_metropolitan
Baracoa,Baracoa,20.3486,-74.5106,Cuba,CU,CUB,Guantánamo,minor,78056.0,1192326052,North America,small_urban
Apopa,Apopa,13.8,-89.1833,El Salvador,SV,SLV,San Salvador,,131286.0,1222101845,North America,small_urban
Warner Robins,Warner Robins,32.5961,-83.6527,United States,US,USA,Georgia,,146790.0,1840015800,North America,small_urban
Chatham,Chatham,51.37,0.52,United Kingdom,GB,GBR,Medway,,76792.0,1826765672,North America,small_urban
Siuna,Siuna,13.7333,-84.7667,Nicaragua,NI,NIC,Costa Caribe Norte,minor,64092.0,1558482501,North America,small_urban
Olathe,Olathe,38.8833,-94.82,United States,US,USA,Kansas,,142114.0,1840003833,North America,small_urban
Jalapa,Jalapa,13.9167,-86.1333,Nicaragua,NI,NIC,Nueva Segovia,minor,54491.0,1558183579,North America,small_urban
Kansas City,Kansas City,39.1235,-94.7443,United States,US,USA,Kansas,,155438.0,1840001626,North America,small_urban
Layton,Layton,41.077,-111.962,United States,US,USA,Utah,,81726.0,1840020145,North America,small_urban
Norton,Norton,-17.8833,30.7,Zimbabwe,ZW,ZWE,Mashonaland West,,87038.0,1716209195,North America,small_urban
Zapotlanejo,Zapotlanejo,20.6228,-103.0689,Mexico,MX,MEX,Jalisco,minor,68519.0,1484013669,North America,small_urban
Holland,Holland,42.7677,-86.0984,United States,US,USA,Michigan,,105134.0,1840002996,North America,small_urban
Lauderhill,Lauderhill,26.1605,-80.2241,United States,US,USA,Florida,,73987.0,1840015146,North America,small_urban
El Estor,El Estor,15.5333,-89.35,Guatemala,GT,GTM,Izabal,minor,82491.0,1320745698,North America,small_urban
Guaymas,Guaymas,27.9183,-110.8933,Mexico,MX,MEX,Sonora,,156863.0,1484822562,North America,small_urban
Cicero,Cicero,41.8445,-87.7593,United States,US,USA,Illinois,,84189.0,1840009186,North America,small_urban
Fredericton,Fredericton,45.9636,-66.6431,Canada,CA,CAN,New Brunswick,admin,64614.0,1124061289,North America,small_urban
Sparks,Sparks,39.5736,-119.7161,United States,US,USA,Nevada,,108025.0,1840021337,North America,small_urban
Brick,Brick,40.06,-74.1099,United States,US,USA,New Jersey,,74230.0,1840081606,North America,small_urban
Terre Haute,Terre Haute,39.466,-87.3751,United States,US,USA,Indiana,,80567.0,1840009671,North America,small_urban
Centennial,Centennial,39.5926,-104.8673,United States,US,USA,Colorado,,107702.0,1840018792,North America,small_urban
Sheboygan,Sheboygan,43.7403,-87.7316,United States,US,USA,Wisconsin,,73531.0,1840002628,North America,small_urban
Tempe,Tempe,33.3881,-111.9319,United States,US,USA,Arizona,,181005.0,1840021942,North America,small_urban
Camarillo,Camarillo,34.223,-119.0321,United States,US,USA,California,,76748.0,1840019201,North America,small_urban
Cupertino,Cupertino,37.3168,-122.0466,United States,US,USA,California,,59763.0,1840018950,North America,small_urban
St. Cloud,St. Cloud,45.534,-94.1718,United States,US,USA,Minnesota,,116649.0,1840008881,North America,small_urban
Malacatán,Malacatan,14.9,-92.0497,Guatemala,GT,GTM,San Marcos,minor,109318.0,1320759841,North America,small_urban
Acámbaro,Acambaro,20.0361,-100.7314,Mexico,MX,MEX,Guanajuato,minor,56597.0,1484524073,North America,small_urban
Zihuatanejo,Zihuatanejo,17.6444,-101.5511,Mexico,MX,MEX,Guerrero,minor,67408.0,1484489217,North America,small_urban
Clovis,Clovis,36.8278,-119.683,United States,US,USA,California,,120607.0,1840018944,North America,small_urban
Senahú,Senahu,15.4164,-89.8203,Guatemala,GT,GTM,Alta Verapaz,minor,98703.0,1320727854,North America,small_urban
Casa Grande,Casa Grande,32.9069,-111.7624,United States,US,USA,Arizona,,55186.0,1840019364,North America,small_urban
La Trinidad,La Trinidad,15.9833,-91.8667,Mexico,MX,MEX,Chiapas,,83111.0,1484023235,North America,small_urban
Palín,Palin,14.4039,-90.6986,Guatemala,GT,GTM,Escuintla,minor,72203.0,1320669279,North America,small_urban
Francisco I. Madero,Francisco I. Madero,25.7753,-103.2731,Mexico,MX,MEX,Coahuila,minor,50084.0,1484764993,North America,small_urban
San Felipe,San Felipe,-32.75,-70.7239,Chile,CL,CHL,Valparaíso,minor,64120.0,1152329463,North America,small_urban
Kelowna,Kelowna,49.8881,-119.4956,Canada,CA,CAN,British Columbia,,181380.0,1124080626,North America,small_urban
Sonsonate,Sonsonate,13.7167,-89.7167,El Salvador,SV,SLV,Sonsonate,admin,71541.0,1222380208,North America,small_urban
San José del Cabo,San Jose del Cabo,23.0614,-109.7081,Mexico,MX,MEX,Baja California Sur,minor,136285.0,1484157742,North America,small_urban
Johns Creek,Johns Creek,34.0333,-84.2027,United States,US,USA,Georgia,,82230.0,1840014742,North America,small_urban
Juana Díaz,Juana Diaz,18.0532,-66.5044,Puerto Rico,PR,PRI,Puerto Rico,,66208.0,1630023583,North America,small_urban
Santa Cruz del Quiché,Santa Cruz del Quiche,15.03,-91.15,Guatemala,GT,GTM,Quiché,admin,99479.0,1320642159,North America,small_urban
Alhambra,Alhambra,34.084,-118.1355,United States,US,USA,California,,82295.0,1840019222,North America,small_urban
Dover,Dover,43.1887,-70.8845,United States,US,USA,New Hampshire,,74554.0,1840002808,North America,small_urban
Ramos Arizpe,Ramos Arizpe,25.55,-100.9667,Mexico,MX,MEX,Coahuila,minor,66554.0,1484685820,North America,small_urban
Jackson,Jackson,35.6538,-88.8354,United States,US,USA,Tennessee,,72836.0,1840014528,North America,small_urban
Belladère,Belladere,18.8667,-71.7667,Haiti,HT,HTI,Centre,,60239.0,1332473025,North America,small_urban
Lerma,Lerma,19.2847,-99.5119,Mexico,MX,MEX,México,minor,105578.0,1484402392,North America,small_urban
Gardena,Gardena,33.8943,-118.3072,United States,US,USA,California,,60377.0,1840020482,North America,small_urban
Troy,Troy,42.7354,-73.6751,United States,US,USA,New York,,51268.0,1840003087,North America,small_urban
Grande Prairie,Grande Prairie,55.1708,-118.7947,Canada,CA,CAN,Alberta,,64141.0,1124505481,North America,small_urban
Lafayette,Lafayette,40.3991,-86.8593,United States,US,USA,Indiana,,160543.0,1840008354,North America,small_urban
Upper Darby,Upper Darby,39.949,-75.2891,United States,US,USA,Pennsylvania,,85217.0,1840035234,North America,small_urban
Heroica Guaymas,Heroica Guaymas,27.9183,-110.8989,Mexico,MX,MEX,Sonora,minor,117253.0,1484689704,North America,small_urban
Chetumal,Chetumal,18.5036,-88.3053,Mexico,MX,MEX,Quintana Roo,admin,169028.0,1484338031,North America,small_urban
Bayamón,Bayamon,18.3794,-66.1635,Puerto Rico,PR,PRI,Puerto Rico,,168698.0,1630035622,North America,small_urban
Norman,Norman,35.2335,-97.3471,United States,US,USA,Oklahoma,,127701.0,1840020451,North America,small_urban
Comitancillo,Comitancillo,15.0833,-91.7167,Guatemala,GT,GTM,San Marcos,minor,80612.0,1320980243,North America,small_urban
Winchester,Winchester,39.1735,-78.1746,United States,US,USA,Virginia,,86813.0,1840001623,North America,small_urban
Suffolk,Suffolk,36.6953,-76.6398,United States,US,USA,Virginia,,94856.0,1840003873,North America,small_urban
Waterloo,Waterloo,43.4667,-80.5167,Canada,CA,CAN,Ontario,,121436.0,1124321390,North America,small_urban
Dudley,Dudley,52.508,-2.089,United Kingdom,GB,GBR,Dudley,,79379.0,1826052828,North America,small_urban
Terrebonne,Terrebonne,45.7,-73.6333,Canada,CA,CAN,Quebec,,119944.0,1124993674,North America,small_urban
Ciudad Valles,Ciudad Valles,21.9833,-99.0167,Mexico,MX,MEX,San Luis Potosí,minor,177022.0,1484904610,North America,small_urban
Diriamba,Diriamba,11.85,-86.2333,Nicaragua,NI,NIC,Carazo,minor,57542.0,1558411169,North America,small_urban
Escondido,Escondido,33.1348,-117.0723,United States,US,USA,California,,151114.0,1840020620,North America,small_urban
Red Deer,Red Deer,52.2681,-113.8111,Canada,CA,CAN,Alberta,,100844.0,1124404130,North America,small_urban
Parsippany-Troy Hills,Parsippany-Troy Hills,40.8601,-74.4237,United States,US,USA,New Jersey,,55970.0,1840081736,North America,small_urban
Glen Burnie,Glen Burnie,39.156,-76.6071,United States,US,USA,Maryland,,71427.0,1840005917,North America,small_urban
Port Orange,Port Orange,29.1085,-81.0137,United States,US,USA,Florida,,62849.0,1840015077,North America,small_urban
La Gomera,La Gomera,14.0833,-91.05,Guatemala,GT,GTM,Escuintla,minor,53211.0,1320383323,North America,small_urban
North Little Rock,North Little Rock,34.7807,-92.2371,United States,US,USA,Arkansas,,64454.0,1840014632,North America,small_urban
Royal Oak,Royal Oak,42.5084,-83.1539,United States,US,USA,Michigan,,58053.0,1840002430,North America,small_urban
Hemet,Hemet,33.7341,-116.9969,United States,US,USA,California,,170621.0,1840020550,North America,small_urban
Lakewood,Lakewood,41.4822,-81.8008,United States,US,USA,Ohio,,50605.0,1840000608,North America,small_urban
Manzanillo,Manzanillo,19.0522,-104.3158,Mexico,MX,MEX,Colima,minor,191031.0,1484223913,North America,small_urban
Pine Hills,Pine Hills,28.5818,-81.4692,United States,US,USA,Florida,,83221.0,1840014098,North America,small_urban
Amatitlán,Amatitlan,14.4833,-90.6167,Guatemala,GT,GTM,Guatemala,minor,152296.0,1320637423,North America,small_urban
Santa María Texmelucan,Santa Maria Texmelucan,19.2833,-98.4333,Mexico,MX,MEX,Puebla,,175518.0,1484127851,North America,small_urban
Parma,Parma,41.3843,-81.7286,United States,US,USA,Ohio,,80587.0,1840003406,North America,small_urban
La Habra,La Habra,33.9282,-117.9515,United States,US,USA,California,,62904.0,1840020585,North America,small_urban
Jacksonville,Jacksonville,34.7289,-77.3941,United States,US,USA,North Carolina,,111830.0,1840014653,North America,small_urban
Jutiapa,Jutiapa,14.2828,-89.8925,Guatemala,GT,GTM,Jutiapa,admin,167049.0,1320264119,North America,small_urban
St. Albert,St. Albert,53.6303,-113.6258,Canada,CA,CAN,Alberta,,68232.0,1124850754,North America,small_urban
Aspen Hill,Aspen Hill,39.0927,-77.0826,United States,US,USA,Maryland,,54262.0,1840005825,North America,small_urban
Texcoco,Texcoco,19.52,-98.88,Mexico,MX,MEX,México,minor,105165.0,1484653265,North America,small_urban
Spring Hill,Spring Hill,35.7437,-86.9116,United States,US,USA,Tennessee,,70531.0,1840015386,North America,small_urban
Rocky Mount,Rocky Mount,35.9685,-77.804,United States,US,USA,North Carolina,,54260.0,1840014490,North America,small_urban
Westminster,Westminster,39.8837,-105.0624,United States,US,USA,Colorado,,115502.0,1840021423,North America,small_urban
Repentigny,Repentigny,45.7333,-73.4667,Canada,CA,CAN,Quebec,,86100.0,1124379778,North America,small_urban
Longview,Longview,46.1461,-122.963,United States,US,USA,Washington,,67203.0,1840019904,North America,small_urban
Bossier City,Bossier City,32.5224,-93.6668,United States,US,USA,Louisiana,,62971.0,1840013790,North America,small_urban
Elizabethtown,Elizabethtown,37.7031,-85.8773,United States,US,USA,Kentucky,,77770.0,1840013218,North America,small_urban
San Luis Río Colorado,San Luis Rio Colorado,32.4767,-114.7625,Mexico,MX,MEX,Sonora,minor,176685.0,1484573106,North America,small_urban
Chelmsford,Chelmsford,51.73,0.48,United Kingdom,GB,GBR,Essex,,115369.0,1826876670,North America,small_urban
La Chorrera,La Chorrera,8.8792,-79.7822,Panama,PA,PAN,Panamá Oeste,admin,68896.0,1591982720,North America,small_urban
Matagalpa,Matagalpa,12.9167,-85.9167,Nicaragua,NI,NIC,Matagalpa,admin,133416.0,1558728443,North America,small_urban
Grimsby,Grimsby,53.5675,-0.08,United Kingdom,GB,GBR,North East Lincolnshire,,88243.0,1826700880,North America,small_urban
Cojutepeque,Cojutepeque,13.7167,-88.9333,El Salvador,SV,SLV,Cuscatlán,admin,50315.0,1222979186,North America,small_urban
North Bergen,North Bergen,40.7938,-74.0242,United States,US,USA,New Jersey,,62066.0,1840081753,North America,small_urban
York,York,53.96,-1.08,United Kingdom,GB,GBR,York,,141685.0,1826149980,North America,small_urban
Framingham,Framingham,42.3085,-71.4368,United States,US,USA,Massachusetts,,71805.0,1840003131,North America,small_urban
León,Leon,12.4333,-86.8867,Nicaragua,NI,NIC,León,admin,176171.0,1558654236,North America,small_urban
San José Villa de Allende,San Jose Villa de Allende,19.3747,-100.1475,Mexico,MX,MEX,México,minor,52641.0,1484492033,North America,small_urban
Schaumburg,Schaumburg,42.0308,-88.0838,United States,US,USA,Illinois,,77571.0,1840011319,North America,small_urban
Fraijanes,Fraijanes,14.4667,-90.4333,Guatemala,GT,GTM,Guatemala,minor,63721.0,1320070590,North America,small_urban
El Bosque,El Bosque,-33.5667,-70.675,Chile,CL,CHL,Región Metropolitana,,175594.0,1152734764,North America,small_urban
Sudbury,Sudbury,46.49,-81.01,Canada,CA,CAN,Ontario,,166004.0,1124539524,North America,small_urban
Jupiter,Jupiter,26.92,-80.1128,United States,US,USA,Florida,,60926.0,1840017255,North America,small_urban
Stratford,Stratford,51.5423,-0.0026,United Kingdom,GB,GBR,Newham,,51387.0,1826465421,North America,small_urban
Portmore,Portmore,17.95,-76.8799,Jamaica,JM,JAM,Saint Catherine,,156469.0,1388926551,North America,small_urban
Castro Valley,Castro Valley,37.7088,-122.0626,United States,US,USA,California,,65444.0,1840017620,North America,small_urban
Dunwoody,Dunwoody,33.9418,-84.3122,United States,US,USA,Georgia,,51458.0,1840022929,North America,small_urban
Palatine,Palatine,42.118,-88.043,United States,US,USA,Illinois,,67223.0,1840011311,North America,small_urban
Port Coquitlam,Port Coquitlam,49.2625,-122.7811,Canada,CA,CAN,British Columbia,,61498.0,1124473757,North America,small_urban
San Pedro Sacatepéquez,San Pedro Sacatepequez,14.9667,-91.7667,Guatemala,GT,GTM,San Marcos,minor,85671.0,1320463364,North America,small_urban
Tracy,Tracy,37.7269,-121.4523,United States,US,USA,California,,94027.0,1840021518,North America,small_urban
San Antonio,San Antonio,-25.3797,-57.6097,Paraguay,PY,PRY,Central,,69976.0,1600088413,North America,small_urban
Fishers,Fishers,39.9588,-85.9659,United States,US,USA,Indiana,,99041.0,1840010496,North America,small_urban
El Viejo,El Viejo,12.6667,-87.1667,Nicaragua,NI,NIC,Chinandega,minor,76775.0,1558770292,North America,small_urban
Carson,Carson,33.8374,-118.2559,United States,US,USA,California,,94475.0,1840019214,North America,small_urban
León,Leon,42.6056,-5.57,Spain,ES,ESP,Castille-Leon,minor,122051.0,1724907542,North America,small_urban
Caldwell,Caldwell,43.6453,-116.6594,United States,US,USA,Idaho,,61212.0,1840018641,North America,small_urban
Sayaxché,Sayaxche,16.5167,-90.1833,Guatemala,GT,GTM,Petén,minor,99787.0,1320897653,North America,small_urban
Cárdenas,Cardenas,23.0428,-81.2036,Cuba,CU,CUB,Matanzas,minor,86700.0,1192582521,North America,small_urban
Kendall,Kendall,25.6697,-80.3556,United States,US,USA,Florida,,78402.0,1840014244,North America,small_urban
Maricopa,Maricopa,33.0408,-112.0011,United States,US,USA,Arizona,,68376.0,1840020629,North America,small_urban
North Charleston,North Charleston,32.9067,-80.0722,United States,US,USA,South Carolina,,115755.0,1840015164,North America,small_urban
Tocoa,Tocoa,15.6833,-86.0,Honduras,HN,HND,Colón,,72847.0,1340024758,North America,small_urban
Bath,Bath,51.38,-2.36,United Kingdom,GB,GBR,Bath and North East Somerset,,94782.0,1826611282,North America,small_urban
Jurupa Valley,Jurupa Valley,34.001,-117.4706,United States,US,USA,California,,105672.0,1840043419,North America,small_urban
Concepción Tutuapa,Concepcion Tutuapa,15.2833,-91.7833,Guatemala,GT,GTM,San Marcos,minor,84138.0,1320051048,North America,small_urban
Eden Prairie,Eden Prairie,44.8488,-93.4595,United States,US,USA,Minnesota,,63623.0,1840007821,North America,small_urban
Cabo San Lucas,Cabo San Lucas,22.8897,-109.9156,Mexico,MX,MEX,Baja California Sur,,68463.0,1484694325,North America,small_urban
West Palm Beach,West Palm Beach,26.7469,-80.132,United States,US,USA,Florida,,117588.0,1840015993,North America,small_urban
Carson City,Carson City,39.1511,-119.7476,United States,US,USA,Nevada,admin,58249.0,1840003826,North America,small_urban
Tejupilco,Tejupilco,18.9058,-100.1528,Mexico,MX,MEX,México,minor,71077.0,1484506998,North America,small_urban
Pearland,Pearland,29.5581,-95.3218,United States,US,USA,Texas,,124478.0,1840020979,North America,small_urban
Châteauguay,Chateauguay,45.38,-73.75,Canada,CA,CAN,Quebec,,75891.0,1124437897,North America,small_urban
Piscataway,Piscataway,40.5467,-74.4636,United States,US,USA,New Jersey,,60447.0,1840081697,North America,small_urban
Mazatenango,Mazatenango,14.5333,-91.5,Guatemala,GT,GTM,Suchitepéquez,admin,82969.0,1320123250,North America,small_urban
Las Cruces,Las Cruces,32.3265,-106.7893,United States,US,USA,New Mexico,,140915.0,1840020683,North America,small_urban
Santee,Santee,32.8554,-116.9851,United States,US,USA,California,,59497.0,1840021992,North America,small_urban
Martin,Martin,49.065,18.9219,Slovakia,SK,SVK,Žilina,minor,51139.0,1703554366,North America,small_urban
Ciudad Río Bravo,Ciudad Rio Bravo,25.9861,-98.0889,Mexico,MX,MEX,Tamaulipas,minor,101481.0,1484549731,North America,small_urban
Coon Rapids,Coon Rapids,45.1755,-93.3094,United States,US,USA,Minnesota,,63296.0,1840006714,North America,small_urban
Morristown,Morristown,36.2043,-83.3001,United States,US,USA,Tennessee,,66220.0,1840014467,North America,small_urban
Silao,Silao,20.9478,-101.4281,Mexico,MX,MEX,Guanajuato,minor,74242.0,1484276023,North America,small_urban
Huamantla,Huamantla,19.3133,-97.9228,Mexico,MX,MEX,Tlaxcala,minor,51996.0,1484180362,North America,small_urban
Malden,Malden,42.4305,-71.0576,United States,US,USA,Massachusetts,,65463.0,1840000430,North America,small_urban
Batatais,Batatais,-20.8911,-47.585,Brazil,BR,BRA,São Paulo,,62980.0,1076581214,South America,small_urban
Estância Velha,Estancia Velha,-29.65,-51.1833,Brazil,BR,BRA,Rio Grande do Sul,,50672.0,1076521402,South America,small_urban
Breves,Breves,-1.6819,-50.48,Brazil,BR,BRA,Pará,,103497.0,1076061751,South America,small_urban
Guapimirim,Guapimirim,-22.5369,-42.8153,Brazil,BR,BRA,Rio de Janeiro,,51696.0,1076569522,South America,small_urban
Sertãozinho,Sertaozinho,-21.1381,-47.9906,Brazil,BR,BRA,São Paulo,,126887.0,1076989194,South America,small_urban
Guarabira,Guarabira,-6.855,-35.49,Brazil,BR,BRA,Paraíba,minor,57484.0,1076842460,South America,small_urban
Quirinópolis,Quirinopolis,-18.4481,-50.4464,Brazil,BR,BRA,Goiás,minor,50701.0,1076793896,South America,small_urban
Camarajibe,Camarajibe,-8.0219,-34.9808,Brazil,BR,BRA,Pernambuco,minor,155054.0,1076738662,South America,small_urban
Itumbiara,Itumbiara,-18.4167,-49.2167,Brazil,BR,BRA,Goiás,minor,107970.0,1076693747,South America,small_urban
Necoclí,Necocli,8.4167,-76.7833,Colombia,CO,COL,Antioquia,minor,69090.0,1170745269,South America,small_urban
Camocim,Camocim,-2.9019,-40.8408,Brazil,BR,BRA,Ceará,minor,63907.0,1076563942,South America,small_urban
Cametá,Cameta,-2.2439,-49.4958,Brazil,BR,BRA,Pará,,134184.0,1076010069,South America,small_urban
Luján,Lujan,-34.5667,-59.1,Argentina,AR,ARG,Buenos Aires,minor,106899.0,1032704827,South America,small_urban
Coronel,Coronel,-37.0167,-73.2167,Chile,CL,CHL,Biobío,,116262.0,1152234834,South America,small_urban
Ilhéus,Ilheus,-14.7889,-39.0489,Brazil,BR,BRA,Bahia,,178703.0,1076021121,South America,small_urban
Montelíbano,Montelibano,7.975,-75.4208,Colombia,CO,COL,Córdoba,minor,88674.0,1170283887,South America,small_urban
Rosario,Rosario,14.42,120.85,Philippines,PH,PHL,Cavite,,110807.0,1608718800,South America,small_urban
Alto Hospicio,Alto Hospicio,-20.25,-70.1167,Chile,CL,CHL,Tarapacá,,108375.0,1152536354,South America,small_urban
San Gil,San Gil,6.5592,-73.135,Colombia,CO,COL,Santander,minor,51874.0,1170310004,South America,small_urban
Puerto Boyacá,Puerto Boyaca,6.0,-74.4167,Colombia,CO,COL,Boyacá,minor,56930.0,1170291040,South America,small_urban
Lagoa Santa,Lagoa Santa,-19.6269,-43.89,Brazil,BR,BRA,Minas Gerais,,75145.0,1076169949,South America,small_urban
Sullana,Sullana,-4.9,-80.6833,Peru,PE,PER,Piura,,162434.0,1604666111,South America,small_urban
La Asunción,La Asuncion,11.0333,-63.8628,Venezuela,VE,VEN,Nueva Esparta,admin,117513.0,1862490314,South America,small_urban
Reconquista,Reconquista,-29.2333,-59.9333,Argentina,AR,ARG,Santa Fe,minor,73293.0,1032927391,South America,small_urban
Passos,Passos,-20.7189,-46.61,Brazil,BR,BRA,Minas Gerais,minor,111939.0,1076782492,South America,small_urban
Coari,Coari,-4.085,-63.1408,Brazil,BR,BRA,Amazonas,minor,70496.0,1076899406,South America,small_urban
Villa de Cura,Villa de Cura,10.0383,-67.4892,Venezuela,VE,VEN,Aragua,minor,145098.0,1862979204,South America,small_urban
Abancay,Abancay,-13.6333,-72.8833,Peru,PE,PER,Apurímac,admin,72277.0,1604782074,South America,small_urban
Monte Mor,Monte Mor,-22.9467,-47.315,Brazil,BR,BRA,São Paulo,,55409.0,1076728241,South America,small_urban
Rubio,Rubio,7.7,-72.35,Venezuela,VE,VEN,Táchira,minor,95041.0,1862078206,South America,small_urban
Viedma,Viedma,-40.8,-63.0,Argentina,AR,ARG,Río Negro,admin,62000.0,1032613063,South America,small_urban
Guaíba,Guaiba,-30.1183,-51.3214,Brazil,BR,BRA,Rio Grande do Sul,,92924.0,1076594929,South America,small_urban
Santa Cruz do Sul,Santa Cruz do Sul,-29.7178,-52.4258,Brazil,BR,BRA,Rio Grande do Sul,,133230.0,1076862896,South America,small_urban
Acaraú,Acarau,-2.8858,-40.1186,Brazil,BR,BRA,Ceará,minor,64806.0,1076016462,South America,small_urban
Araguaína,Araguaina,-7.1908,-48.2069,Brazil,BR,BRA,Tocantins,minor,171301.0,1076632868,South America,small_urban
Eldorado,Eldorado,-26.4,-54.6333,Argentina,AR,ARG,Misiones,minor,57323.0,1032056096,South America,small_urban
Villa Carlos Paz,Villa Carlos Paz,-31.4,-64.5167,Argentina,AR,ARG,Córdoba,,75315.0,1032854975,South America,small_urban
Buenavista,Buenavista,8.97,125.41,Philippines,PH,PHL,Agusan del Norte,,68892.0,1608153897,South America,small_urban
Bragança Paulista,Braganca Paulista,-22.9531,-46.5422,Brazil,BR,BRA,São Paulo,,160665.0,1076245528,South America,small_urban
Daule,Daule,-1.8667,-79.9833,Ecuador,EC,ECU,Guayas,,161498.0,1218253183,South America,small_urban
Lucas do Rio Verde,Lucas do Rio Verde,-13.0719,-55.9192,Brazil,BR,BRA,Mato Grosso,minor,83798.0,1076459192,South America,small_urban
Euclides da Cunha,Euclides da Cunha,-10.5078,-39.0139,Brazil,BR,BRA,Bahia,minor,61456.0,1076277178,South America,small_urban
Jaraguá do Sul,Jaragua do Sul,-26.4833,-49.0667,Brazil,BR,BRA,Santa Catarina,,182660.0,1076588128,South America,small_urban
Monte Alegre,Monte Alegre,-2.0023,-54.0717,Brazil,BR,BRA,Pará,minor,60016.0,1076174262,South America,small_urban
Cachoeira do Sul,Cachoeira do Sul,-30.0392,-52.8939,Brazil,BR,BRA,Rio Grande do Sul,,80070.0,1076336795,South America,small_urban
General Roca,General Roca,-39.0333,-67.5833,Argentina,AR,ARG,Río Negro,minor,160954.0,1032829704,South America,small_urban
São José do Rio Pardo,Sao Jose do Rio Pardo,-21.5956,-46.8886,Brazil,BR,BRA,São Paulo,,52204.0,1076381687,South America,small_urban
Nova Odessa,Nova Odessa,-22.78,-47.2989,Brazil,BR,BRA,São Paulo,,62019.0,1076061503,South America,small_urban
Rio do Sul,Rio do Sul,-27.2167,-49.65,Brazil,BR,BRA,Santa Catarina,,72587.0,1076530229,South America,small_urban
Almirante Tamandaré,Almirante Tamandare,-25.325,-49.31,Brazil,BR,BRA,Paraná,,119825.0,1076372357,South America,small_urban
Barra do Garças,Barra do Garcas,-15.89,-52.2567,Brazil,BR,BRA,Mato Grosso,minor,69210.0,1076425403,South America,small_urban
União dos Palmares,Uniao dos Palmares,-9.1628,-36.0319,Brazil,BR,BRA,Alagoas,minor,59280.0,1076598708,South America,small_urban
Carpina,Carpina,-7.8508,-35.2547,Brazil,BR,BRA,Pernambuco,minor,84395.0,1076005200,South America,small_urban
Socopó,Socopo,8.2322,-70.8206,Venezuela,VE,VEN,Barinas,minor,110512.0,1862619610,South America,small_urban
Biguaçu,Biguacu,-27.5,-48.6667,Brazil,BR,BRA,Santa Catarina,,69486.0,1076869861,South America,small_urban
Moquegua,Moquegua,-17.2,-70.9333,Peru,PE,PER,Moquegua,admin,69882.0,1604230427,South America,small_urban
Chota,Chota,-6.5614,-78.6486,Peru,PE,PER,Cajamarca,,54611.0,1604928947,South America,small_urban
Aquiraz,Aquiraz,-3.9,-38.3831,Brazil,BR,BRA,Ceará,minor,80243.0,1076523331,South America,small_urban
São Félix do Xingu,Sao Felix do Xingu,-6.6333,-51.9833,Brazil,BR,BRA,Pará,minor,65418.0,1076909404,South America,small_urban
Moju,Moju,-1.89,-48.7661,Brazil,BR,BRA,Pará,,83039.0,1076020210,South America,small_urban
Chinú,Chinu,9.0833,-75.3333,Colombia,CO,COL,Córdoba,minor,50313.0,1170780523,South America,small_urban
Sabanalarga,Sabanalarga,10.63,-74.9236,Colombia,CO,COL,Atlántico,minor,84410.0,1170724527,South America,small_urban
Coruripe,Coruripe,-10.1258,-36.1758,Brazil,BR,BRA,Alagoas,,57294.0,1076998029,South America,small_urban
Toledo,Toledo,-24.7139,-53.7428,Brazil,BR,BRA,Paraná,,150470.0,1076312600,South America,small_urban
Lambayeque,Lambayeque,-6.7,-79.9,Peru,PE,PER,Lambayeque,,58276.0,1604253597,South America,small_urban
Charallave,Charallave,10.2431,-66.8622,Venezuela,VE,VEN,Miranda,minor,117707.0,1862753487,South America,small_urban
Maués,Maues,-3.3836,-57.7186,Brazil,BR,BRA,Amazonas,minor,61204.0,1076490155,South America,small_urban
Villarrica,Villarrica,-25.75,-56.4333,Paraguay,PY,PRY,Guairá,admin,56385.0,1600446518,South America,small_urban
Santa Rosa,Santa Rosa,-27.867,-54.467,Brazil,BR,BRA,Rio Grande do Sul,,77519.0,1076071027,South America,small_urban
Macaíba,Macaiba,-5.8578,-35.3539,Brazil,BR,BRA,Rio Grande do Norte,minor,82212.0,1076176042,South America,small_urban
Catu,Catu,-12.3497,-38.3831,Brazil,BR,BRA,Bahia,minor,54970.0,1076222188,South America,small_urban
Santa Cruz,Santa Cruz,36.9789,-122.0346,United States,US,USA,California,,167835.0,1840021579,South America,small_urban
Santa Barbara,Santa Barbara,16.0031,120.4008,Philippines,PH,PHL,Pangasinan,,92187.0,1608539009,South America,small_urban
Villa Mercedes,Villa Mercedes,-33.6667,-65.4667,Argentina,AR,ARG,San Luis,minor,111391.0,1032858021,South America,small_urban
Abaetetuba,Abaetetuba,-1.7178,-48.8828,Brazil,BR,BRA,Pará,,158188.0,1076974632,South America,small_urban
Timbaúba,Timbauba,-7.5108,-35.3178,Brazil,BR,BRA,Pernambuco,minor,52802.0,1076430214,South America,small_urban
Piraquara,Piraquara,-25.4419,-49.0628,Brazil,BR,BRA,Paraná,,118730.0,1076240504,South America,small_urban
