image_name,model_response,label_city,label_country,predicted_city,predicted_country,label_lat,label_long,predicted_lat,predicted_long,distance
imgs_final_v1/0.jpg,"{""lat"": 51.50841, ""long"": -0.1278, ""city"": ""London"", ""country"": ""United Kingdom""}",Geelong,Australia,London,United Kingdom,-38.14890723327248,144.34866810439055,51.50841,-0.1278,16886.626183211654
imgs_final_v1/1.jpg,"{""lat"": -26.8585, ""long"": 153.3483, ""city"": ""Auckland"", ""country"": ""New Zealand""}",Townsville,Australia,Auckland,New Zealand,-19.24927290564876,146.81708939608905,-26.8585,153.3483,1077.6602480070687
imgs_final_v1/2.jpg,"{""lat"": 53.5378, ""long"": -0.1278, ""city"": ""London"", ""country"": ""United Kingdom""}",Tauranga,New Zealand,London,United Kingdom,-37.683998770048646,176.16728990980292,53.5378,-0.1278,18229.444718014944
imgs_final_v1/3.jpg,"{""lat"": 10.0, ""long"": 118.0, ""city"": ""Taipei"", ""country"": ""Taiwan""}",Cairns,Australia,Taipei,Taiwan,-16.919274552569775,145.7786788015997,10.0,118.0,4276.346315721342
imgs_final_v1/4.jpg,"{""lat"": -25.237, ""long"": 141.053, ""city"": ""Brisbane"", ""country"": ""Australia""}",Darwin,Australia,Brisbane,Australia,-12.437700088637165,130.84036582793723,-25.237,141.053,1781.5332526362076
imgs_final_v1/5.jpg,"{""lat"": 51.5084, ""long"": -0.1278, ""city"": ""London"", ""country"": ""United Kingdom""}",Sale,United Kingdom,London,United Kingdom,53.4246509005735,-2.3234132911276166,51.5084,-0.1278,259.82755251066186
imgs_final_v1/6.jpg,"{""lat"": 53.5378, ""long"": -2.2423, ""city"": ""Manchester"", ""country"": ""UK""}",Lincoln,United Kingdom,Manchester,UK,53.229672185871706,-0.5398846154681382,53.5378,-2.2423,117.9890831831846
imgs_final_v1/7.jpg,"{""lat"": 23.977, ""long"": -118.493, ""city"": ""Los Angeles"", ""country"": ""USA""}",Maina,Guam,Los Angeles,USA,13.467777185718369,144.73320818923975,23.977,-118.493,10072.306857740952
imgs_final_v1/8.jpg,"{""lat"": -33.8825, ""long"": 151.2125, ""city"": ""Sydney"", ""country"": ""Australia""}",Ballarat,Australia,Sydney,Australia,-37.559627327931615,143.84760597717613,-33.8825,151.2125,780.1536220579538
imgs_final_v1/9.jpg,"{""lat"": -33.862, ""long"": 151.203, ""city"": ""Sydney"", ""country"": ""Australia""}",Toowoomba,Australia,Sydney,Australia,-27.565876368452454,151.95050764530234,-33.862,151.203,703.7270159636483
imgs_final_v1/10.jpg,"{""lat"": -33.8775, ""long"": 151.2125, ""city"": ""Sydney"", ""country"": ""Australia""}",Lower Hutt,New Zealand,Sydney,Australia,-41.217076601073366,174.91860598537605,-33.8775,151.2125,2234.7320439689347
imgs_final_v1/11.jpg,"{""lat"": -33.8775, ""long"": 151.2125, ""city"": ""Sydney"", ""country"": ""Australia""}",Bendigo,Australia,Sydney,Australia,-36.749795529289166,144.26756848210198,-33.8775,151.2125,706.2032180420373
imgs_final_v1/12.jpg,"{""lat"": -33.867, ""long"": 151.213, ""city"": ""Sydney"", ""country"": ""Australia""}",Mandurah,Australia,Sydney,Australia,-32.53033289382218,115.7229194011573,-33.867,151.213,3289.136740060984
imgs_final_v1/13.jpg,"{""lat"": 32.0875, ""long"": -86.7233, ""city"": ""Atlanta"", ""country"": ""USA""}",Albany,United States,Atlanta,USA,31.57698510777629,-84.17574009745191,32.0875,-86.7233,247.26704655515653
imgs_final_v1/14.jpg,"{""lat"": -33.8778, ""long"": 151.2123, ""city"": ""Sydney"", ""country"": ""Australia""}",Launceston,Australia,Sydney,Australia,-41.44219183950564,147.14569882690776,-33.8778,151.2123,913.8333072320754
imgs_final_v1/15.jpg,"{""lat"": 42.3584, ""long"": -71.0549, ""city"": ""Boston"", ""country"": ""USA""}",Somerville,United States,Boston,USA,42.390285649995455,-71.10104507843499,42.3584,-71.0549,5.190342055296611
imgs_final_v1/16.jpg,"{""lat"": -33.867, ""long"": 151.203, ""city"": ""Sydney"", ""country"": ""Australia""}",Melton,Australia,Sydney,Australia,-37.68194824835233,144.58326740015477,-33.867,151.203,732.204440928017
imgs_final_v1/17.jpg,"{""lat"": 48.8569, ""long"": 2.3522, ""city"": ""Paris"", ""country"": ""France""}",Palmerston North,New Zealand,Paris,France,-40.35576709066374,175.61019751861966,48.8569,2.3522,18930.552068601963
imgs_final_v1/18.jpg,"{""lat"": 37.7749, ""long"": -122.4194, ""city"": ""San Francisco"", ""country"": ""USA""}",Tamworth,United Kingdom,San Francisco,USA,52.63151485342818,-1.6945227962870109,37.7749,-122.4194,8452.103191127822
imgs_final_v1/19.jpg,"{""lat"": -33.8775, ""long"": 151.2123, ""city"": ""Sydney"", ""country"": ""Australia""}",Mackay,Australia,Sydney,Australia,-21.140734621538485,149.18525231646618,-33.8775,151.2123,1430.198636534666
imgs_final_v1/20.jpg,"{""lat"": -33.8775, ""long"": 151.2125, ""city"": ""Sydney"", ""country"": ""Australia""}",Bunbury,Australia,Sydney,Australia,-33.32714613851395,115.63684294372186,-33.8775,151.2125,3278.720970320124
imgs_final_v1/21.jpg,"{""lat"": -33.8775, ""long"": 151.2125, ""city"": ""Sydney"", ""country"": ""Australia""}",Bundaberg,Australia,Sydney,Australia,-24.8654864756688,152.3480314043214,-33.8775,151.2125,1008.089074182742
imgs_final_v1/22.jpg,"{""lat"": -33.867, ""long"": 151.203, ""city"": ""Sydney"", ""country"": ""Australia""}",Queenstown,South Africa,Sydney,Australia,-31.900693898295007,26.88340693922964,-33.867,151.203,10664.6360890619
imgs_final_v1/23.jpg,"{""lat"": 50.8578, ""long"": -0.1278, ""city"": ""London"", ""country"": ""United Kingdom""}",Torquay,United Kingdom,London,United Kingdom,50.470283929098414,-3.528402542544697,50.8578,-0.1278,243.5030664117835
imgs_final_v1/24.jpg,"{""lat"": -33.8728, ""long"": 151.2123, ""city"": ""Sydney"", ""country"": ""Australia""}",Rockhampton,Australia,Sydney,Australia,-23.377236625285462,150.51240839892554,-33.8728,151.2123,1169.0403898399848
imgs_final_v1/25.jpg,"{""lat"": 37.7749, ""long"": -122.4194, ""city"": ""San Francisco"", ""country"": ""USA""}",Napier,New Zealand,San Francisco,USA,-39.48981748530205,176.9164107977622,37.7749,-122.4194,10586.169954396675
imgs_final_v1/26.jpg,"{""lat"": -157.828, ""long"": 196.833, ""city"": ""Honolulu"", ""country"": ""USA""}",Hervey Bay,Australia,Honolulu,USA,-25.290885256325883,152.84134889286335,-157.828,196.833,12918.37735933304
imgs_final_v1/27.jpg,"{""lat"": -33.8775, ""long"": 151.2125, ""city"": ""Sydney"", ""country"": ""Australia""}",New Plymouth,New Zealand,Sydney,Australia,-39.057465661080485,174.07347305397468,-33.8775,151.2125,2117.4442301062218
imgs_final_v1/28.jpg,"{""lat"": 40.7128, ""long"": -74.0060, ""city"": ""New York"", ""country"": ""USA""}",Albany,United States,New York,USA,44.62770172191209,-123.09527793066856,40.7128,-74.006,3976.104965493863
imgs_final_v1/29.jpg,"{""lat"": 50.8569, ""long"": -0.1278, ""city"": ""London"", ""country"": ""United Kingdom""}",Porirua,New Zealand,London,United Kingdom,-41.1333931730589,174.85070404243055,50.8569,-0.1278,18867.08854894065
imgs_final_v1/30.jpg,"{""lat"": -33.8775, ""long"": 151.2125, ""city"": ""Sydney"", ""country"": ""Australia""}",Rotorua,New Zealand,Sydney,Australia,-38.13883467263928,176.25086547857055,-33.8775,151.2125,2294.037051582247
imgs_final_v1/31.jpg,"{""lat"": 53.0178, ""long"": -2.1853, ""city"": ""Leeds"", ""country"": ""United Kingdom""}",Horsham,United Kingdom,Leeds,United Kingdom,51.06186047890164,-0.3232957304087305,53.0178,-2.1853,252.0150329154199
imgs_final_v1/32.jpg,"{""lat"": 40.7128, ""long"": -74.0060, ""city"": ""New York"", ""country"": ""USA""}",Whangarei,New Zealand,New York,USA,-35.72512180784033,174.32313168484586,40.7128,-74.006,14171.98320719594
imgs_final_v1/33.jpg,"{""lat"": 37.7749, ""long"": -122.4194, ""city"": ""San Francisco"", ""country"": ""USA""}",Lincoln,United Kingdom,San Francisco,USA,38.8784961312996,-121.29470956104566,37.7749,-122.4194,157.10819089949564
imgs_final_v1/34.jpg,"{""lat"": 10.0, ""long"": 100.0, ""city"": ""Kuala Lumpur"", ""country"": ""Malaysia""}",Manolo Fortich,Philippines,Kuala Lumpur,Malaysia,8.366615882718353,124.86610628757477,10.0,100.0,2734.9270797781664
imgs_final_v1/35.jpg,"{""lat"": 40.7128, ""long"": -74.0060, ""city"": ""New York"", ""country"": ""United States""}",Tekkeköy,Turkey,New York,United States,41.21361796562377,36.45587270688408,40.7128,-74.006,8526.19673595552
imgs_final_v1/36.jpg,"{""lat"": 40.7128, ""long"": -74.0060, ""city"": ""New York"", ""country"": ""United States""}",Bafra,Turkey,New York,United States,41.57309351972688,35.91341377694313,40.7128,-74.006,8465.84091461896
imgs_final_v1/37.jpg,"{""lat"": 11.937, ""long"": 109.953, ""city"": ""Kota Kinabalu"", ""country"": ""Malaysia""}",M’lang,Philippines,Kota Kinabalu,Malaysia,6.948647447979388,124.8799594513392,11.937,109.953,1728.0656889476522
imgs_final_v1/38.jpg,"{""lat"": 35.6828, ""long"": 139.6828, ""city"": ""Tokyo"", ""country"": ""Japan""}",Iga,Japan,Tokyo,Japan,34.767048256293805,136.13351027079884,35.6828,139.6828,338.0717870065847
imgs_final_v1/39.jpg,"{""lat"": 38.9052, ""long"": -77.0368, ""city"": ""Washington, D.C."", ""country"": ""United States""}",Kiryū,Japan,"Washington, D.C.",United States,36.40460220667788,139.4971763600305,38.9052,-77.0368,10841.485198332057
imgs_final_v1/40.jpg,"{""lat"": 40.7128, ""long"": -74.0060, ""city"": ""New York"", ""country"": ""United States""}",Mooka,Japan,New York,United States,36.43972142455755,140.012185574898,40.7128,-74.006,10761.059926244505
imgs_final_v1/41.jpg,"{""lat"": 1.23456, ""long"": 123.45678, ""city"": ""Singapore"", ""country"": ""Singapore""}",Douliu,Taiwan,Singapore,Singapore,23.70829420291421,120.54416841436712,1.23456,123.45678,2518.600556113812
imgs_final_v1/42.jpg,"{""lat"": 23.9522, ""long"": 120.7423, ""city"": ""Taipei"", ""country"": ""Taiwan""}",Nantou,Taiwan,Taipei,Taiwan,23.91654224743576,120.6826732880568,23.9522,120.7423,7.241911218442761
imgs_final_v1/43.jpg,"{""lat"": 40.7128, ""long"": -74.0060, ""city"": ""New York"", ""country"": ""United States""}",Komatsu,Japan,New York,United States,36.40735031807264,136.44657802168683,40.7128,-74.006,10894.388927466382
imgs_final_v1/44.jpg,"{""lat"": 13.537, ""long"": 121.873, ""city"": ""Manila"", ""country"": ""Philippines""}",Monkayo,Philippines,Manila,Philippines,7.823103864414027,126.05241575410804,13.537,121.873,782.3293451126838
imgs_final_v1/45.jpg,"{""lat"": 35.6828, ""long"": 139.6828, ""city"": ""Tokyo"", ""country"": ""Japan""}",Kazo,Japan,Tokyo,Japan,36.13187219060179,139.60030503955082,35.6828,139.6828,50.48426496703395
imgs_final_v1/46.jpg,"{""lat"": 35.6883, ""long"": 139.6883, ""city"": ""Tokyo"", ""country"": ""Japan""}",Konan,Japan,Tokyo,Japan,35.00111189345737,136.08334692147312,35.6883,139.6883,335.7574953035865
imgs_final_v1/47.jpg,"{""lat"": 23.9578, ""long"": 120.7423, ""city"": ""Taipei"", ""country"": ""Taiwan""}",Yilan,Taiwan,Taipei,Taiwan,24.74950072758533,121.75100765551632,23.9578,120.7423,134.87327763083672
imgs_final_v1/48.jpg,"{""lat"": 13.537, ""long"": 101.523, ""city"": ""Bangkok"", ""country"": ""Thailand""}",Phra Nakhon Si Ayutthaya,Thailand,Bangkok,Thailand,14.348755750473472,100.55998908668292,13.537,101.523,137.65175367539237
imgs_final_v1/49.jpg,"{""lat"": 35.6875, ""long"": 139.685, ""city"": ""Tokyo"", ""country"": ""Japan""}",Kiyose,Japan,Tokyo,Japan,35.786028518135005,139.52607007028615,35.6875,139.685,18.049955728363283
imgs_final_v1/50.jpg,"{""lat"": 13.9378, ""long"": 100.5323, ""city"": ""Bangkok"", ""country"": ""Thailand""}",San Mateo,Philippines,Bangkok,Thailand,16.880942667932896,121.5800783700654,13.9378,100.5323,2278.6835530945496
imgs_final_v1/51.jpg,"{""lat"": -10.0, ""long"": -66.0, ""city"": ""Santo Domingo"", ""country"": ""Dominican Republic""}",Pandi,Philippines,Santo Domingo,Dominican Republic,14.870074020433506,120.95118993467622,-10.0,-66.0,19086.34770913293
imgs_final_v1/52.jpg,"{""lat"": 37.7749, ""long"": -122.4194, ""city"": ""San Francisco"", ""country"": ""USA""}",Gumaca,Philippines,San Francisco,USA,13.92140359072337,122.09982674215256,37.7749,-122.4194,11177.98269708762
imgs_final_v1/53.jpg,"{""lat"": 11.7378, ""long"": 77.5732, ""city"": ""Hyderabad"", ""country"": ""India""}",Puttūr,India,Hyderabad,India,13.450393577819586,79.5503854482816,11.7378,77.5732,286.8752862869156
imgs_final_v1/54.jpg,"{""lat"": 10.0, ""long"": 118.0, ""city"": ""Taipei"", ""country"": ""Taiwan""}",San Fernando,Philippines,Taipei,Taiwan,10.170924829652092,123.70117389951558,10.0,118.0,624.4268787122746
imgs_final_v1/55.jpg,"{""lat"": 17.517, ""long"": 78.385, ""city"": ""Hyderabad"", ""country"": ""India""}",Bhīmavaram,India,Hyderabad,India,16.543580053396635,81.52328154746115,17.517,78.385,350.7681743041335
imgs_final_v1/56.jpg,"{""lat"": -7.0537, ""long"": 112.9232, ""city"": ""Jakarta"", ""country"": ""Indonesia""}",Bontang,Indonesia,Jakarta,Indonesia,0.1339406557801753,117.49959767428516,-7.0537,112.9232,946.8011274614634
imgs_final_v1/57.jpg,"{""lat"": 35.6881, ""long"": 126.9829, ""city"": ""Tokyo"", ""country"": ""Japan""}",Kani,Japan,Tokyo,Japan,35.42612911889053,137.06078994198236,35.6881,126.9829,911.7223346111148
imgs_final_v1/58.jpg,"{""lat"": 35.6828, ""long"": 139.7697, ""city"": ""Tokyo"", ""country"": ""Japan""}",Kuwana,Japan,Tokyo,Japan,35.067649965624334,136.68233646645405,35.6828,139.7697,288.1405565236154
imgs_final_v1/59.jpg,"{""lat"": 35.6875, ""long"": 139.6833, ""city"": ""Tokyo"", ""country"": ""Japan""}",Iwakuni,Japan,Tokyo,Japan,34.16532479811049,132.21842393170706,35.6875,139.6833,701.0841740623343
imgs_final_v1/60.jpg,"{""lat"": 10.0, ""long"": 120.0, ""city"": ""Manila"", ""country"": ""Philippines""}",Buluan,Philippines,Manila,Philippines,6.715132280500332,124.78692039796212,10.0,120.0,640.8343497601879
imgs_final_v1/61.jpg,"{""lat"": 40.4168, ""long"": -74.0092, ""city"": ""New York"", ""country"": ""USA""}",Silivri,Turkey,New York,USA,41.07349398290047,28.249250440516327,40.4168,-74.0092,8038.842601781285
imgs_final_v1/62.jpg,"{""lat"": 13.537, ""long"": 100.523, ""city"": ""Manila"", ""country"": ""Philippines""}",Bago,Philippines,Manila,Philippines,10.537439083272789,122.83821386256548,13.537,100.523,2448.6094124431534
imgs_final_v1/63.jpg,"{""lat"": 10.0, ""long"": 110.0, ""city"": ""Manila"", ""country"": ""Philippines""}",Alangalang,Philippines,Manila,Philippines,11.20456356301752,124.84771755333166,10.0,110.0,1628.136203762344
imgs_final_v1/64.jpg,"{""lat"": 10.0, ""long"": 118.0, ""city"": ""Taipei"", ""country"": ""Taiwan""}",Gloria,Philippines,Taipei,Taiwan,12.971933204689147,121.4789460017318,10.0,118.0,502.8724821997251
imgs_final_v1/65.jpg,"{""lat"": 33.9578, ""long"": 2.7123, ""city"": ""Marseille"", ""country"": ""France""}",Eilat,Israel,Marseille,France,29.558306902637327,34.9509009102062,33.9578,2.7123,3074.2139705230625
imgs_final_v1/66.jpg,"{""lat"": 13.537, ""long"": 100.543, ""city"": ""Manila"", ""country"": ""Philippines""}",Magalang,Philippines,Manila,Philippines,15.22068895446837,120.66893089855644,13.537,100.543,2175.082293578155
imgs_final_v1/67.jpg,"{""lat"": 35.68843, ""long"": 139.69122, ""city"": ""Tokyo"", ""country"": ""Japan""}",Hatogaya-honchō,Japan,Tokyo,Japan,35.832689766878154,139.73483710367202,35.68843,139.69122,16.516695562714347
imgs_final_v1/68.jpg,"{""lat"": 35.6875, ""long"": 139.6875, ""city"": ""Tokyo"", ""country"": ""Japan""}",Muroran,Japan,Tokyo,Japan,42.31658535290283,140.9675326643668,35.6875,139.6875,745.3460927457365
imgs_final_v1/69.jpg,"{""lat"": 40.7128, ""long"": -74.0060, ""city"": ""New York"", ""country"": ""United States""}",Alaşehir,Turkey,New York,United States,38.34879453536102,28.516438239171585,40.7128,-74.006,8227.296276601008
imgs_final_v1/70.jpg,"{""lat"": 13.567, ""long"": 100.543, ""city"": ""Manila"", ""country"": ""Philippines""}",Dalaguete,Philippines,Manila,Philippines,9.75964370915269,123.5347031322354,13.567,100.543,2538.1125369032065
imgs_final_v1/71.jpg,"{""lat"": 11.5, ""long"": 79.5, ""city"": ""Kolkata"", ""country"": ""India""}",Bodhan,India,Kolkata,India,18.668680608428787,77.90056429256018,11.5,79.5,815.3789889245797
imgs_final_v1/72.jpg,"{""lat"": 35.6828, ""long"": 139.6828, ""city"": ""Tokyo"", ""country"": ""Japan""}",Fukutsu,Japan,Tokyo,Japan,33.766434893312145,130.48504107410483,35.6828,139.6828,866.8042536002522
imgs_final_v1/73.jpg,"{""lat"": 37.7749, ""long"": -122.4194, ""city"": ""San Francisco"", ""country"": ""USA""}",Al ‘Aqabah,Jordan,San Francisco,USA,29.531925354617112,35.004472734059654,37.7749,-122.4194,12171.036410204388
imgs_final_v1/74.jpg,"{""lat"": 13.9378, ""long"": 121.8793, ""city"": ""Manila"", ""country"": ""Philippines""}",San Isidro,Philippines,Manila,Philippines,15.308525519399128,120.90622408381375,13.9378,121.8793,184.91025792940695
imgs_final_v1/75.jpg,"{""lat"": 13.537, ""long"": 121.063, ""city"": ""Manila"", ""country"": ""Philippines""}",Virac,Philippines,Manila,Philippines,13.580003707598737,124.2294411778228,13.537,121.063,342.3107525386044
imgs_final_v1/76.jpg,"{""lat"": 30.5, ""long"": 121.5, ""city"": ""Taipei"", ""country"": ""Taiwan""}",Naga,Philippines,Taipei,Taiwan,10.219762380878072,123.74925004159,30.5,121.5,2267.037414311645
imgs_final_v1/77.jpg,"{""lat"": 40.7128, ""long"": -74.0060, ""city"": ""New York"", ""country"": ""United States""}",Tokmok,Kyrgyzstan,New York,United States,42.832136545626334,75.28210447945021,40.7128,-74.006,10227.13847034908
imgs_final_v1/78.jpg,"{""lat"": 10.0, ""long"": -67.0, ""city"": ""San Juan"", ""country"": ""Puerto Rico""}",Wao,Philippines,San Juan,Puerto Rico,7.640184745122801,124.72690562095048,10.0,-67.0,17662.72082980742
imgs_final_v1/79.jpg,"{""lat"": 52.5218, ""long"": 21.0532, ""city"": ""Kiev"", ""country"": ""Ukraine""}",Kōenchō,Japan,Kiev,Ukraine,43.80210802255069,143.89386315105438,52.5218,21.0532,7991.778810299503
imgs_final_v1/80.jpg,"{""lat"": 28.5827, ""long"": 77.1442, ""city"": ""New Delhi"", ""country"": ""India""}",Jaunpur,India,New Delhi,India,25.72918189120264,82.6789810935671,28.5827,77.1442,632.7570310041383
imgs_final_v1/81.jpg,"{""lat"": 13.937, ""long"": 100.553, ""city"": ""Manila"", ""country"": ""Philippines""}",Barotac Nuevo,Philippines,Manila,Philippines,10.899905475700308,122.70014419089208,13.937,100.553,2427.610068279798
imgs_final_v1/82.jpg,"{""lat"": 35.6878, ""long"": 129.1234, ""city"": ""Tokyo"", ""country"": ""Japan""}",Toride,Japan,Tokyo,Japan,35.912119517656194,140.04967156750158,35.6878,129.1234,985.2013470638376
imgs_final_v1/83.jpg,"{""lat"": 35.6885, ""long"": 139.6823, ""city"": ""Tokyo"", ""country"": ""Japan""}",Kiyosu,Japan,Tokyo,Japan,35.19915924375992,136.85204722412263,35.6885,139.6823,262.0888637428542
imgs_final_v1/84.jpg,"{""lat"": 13.937, ""long"": 121.993, ""city"": ""Manila"", ""country"": ""Philippines""}",Baras,Philippines,Manila,Philippines,14.519920222808556,121.26857127843805,13.937,121.993,101.47920696260614
imgs_final_v1/85.jpg,"{""lat"": 12.0378, ""long"": 120.8423, ""city"": ""Manila"", ""country"": ""Philippines""}",Calapan,Philippines,Manila,Philippines,13.414346376477525,121.18062298483338,12.0378,120.8423,157.40197478785467
imgs_final_v1/86.jpg,"{""lat"": 13.567, ""long"": 100.543, ""city"": ""Manila"", ""country"": ""Philippines""}",Pikit,Philippines,Manila,Philippines,7.051438838796682,124.67020859115978,13.567,100.543,2735.0107384052408
imgs_final_v1/87.jpg,"{""lat"": 35.6875, ""long"": 139.6875, ""city"": ""Tokyo"", ""country"": ""Japan""}",Kōka,Japan,Tokyo,Japan,34.966510828366744,136.16805757408335,35.6875,139.6875,329.17395127903404
imgs_final_v1/88.jpg,"{""lat"": 12.5, ""long"": 100.0, ""city"": ""Manila"", ""country"": ""Philippines""}",Naguilian,Philippines,Manila,Philippines,16.529188081971995,120.3991271989521,12.5,100.0,2239.867354749809
imgs_final_v1/89.jpg,"{""lat"": 37.7749, ""long"": -122.4194, ""city"": ""San Francisco"", ""country"": ""USA""}",Onomichi,Japan,San Francisco,USA,34.41722875709119,133.19994431468004,37.7749,-122.4194,8826.731024020517
imgs_final_v1/90.jpg,"{""lat"": 48.8569, ""long"": 2.3522, ""city"": ""Paris"", ""country"": ""France""}",Tsuruoka,Japan,Paris,France,38.72667770358287,139.82733449160386,48.8569,2.3522,9415.203909012938
imgs_final_v1/91.jpg,"{""lat"": -7.0537, ""long"": 112.5732, ""city"": ""Jakarta"", ""country"": ""Indonesia""}",Ubud,Indonesia,Jakarta,Indonesia,-8.507725034034793,115.26271492746392,-7.0537,112.5732,337.53980356249923
imgs_final_v1/92.jpg,"{""lat"": 10.0, ""long"": 118.0, ""city"": ""Taipei"", ""country"": ""Taiwan""}",Catarman,Philippines,Taipei,Taiwan,12.498660775475978,124.63361893888938,10.0,118.0,774.8958706389074
imgs_final_v1/93.jpg,"{""lat"": 33.9522, ""long"": 35.2032, ""city"": ""Tehran"", ""country"": ""Iran""}",Rahat,Israel,Tehran,Iran,31.39393789691333,34.754340346958074,33.9522,35.2032,287.55039101165903
imgs_final_v1/94.jpg,"{""lat"": 10.0, ""long"": 100.0, ""city"": ""Bangkok"", ""country"": ""Thailand""}",Kabacan,Philippines,Bangkok,Thailand,7.119699619684866,124.82148403761248,10.0,100.0,2747.2221663171345
imgs_final_v1/95.jpg,"{""lat"": 10.0, ""long"": 100.0, ""city"": ""Kuala Lumpur"", ""country"": ""Malaysia""}",Blitar,Indonesia,Kuala Lumpur,Malaysia,-8.09981990777075,112.15137468886132,10.0,100.0,2420.8518668229144
imgs_final_v1/96.jpg,"{""lat"": -1.0, ""long"": 121.0, ""city"": ""San Jose"", ""country"": ""Costa Rica""}",Lantapan,Philippines,San Jose,Costa Rica,7.99879783840771,125.02333798466417,-1.0,121.0,1095.5479143731927
imgs_final_v1/97.jpg,"{""lat"": 13.537, ""long"": 76.822, ""city"": ""Hyderabad"", ""country"": ""India""}",Shillong,India,Hyderabad,India,25.581545808857832,91.8942130860738,13.537,76.822,2067.218570390976
imgs_final_v1/98.jpg,"{""lat"": 35.6858, ""long"": 139.7697, ""city"": ""Tokyo"", ""country"": ""Japan""}",Kesennuma,Japan,Tokyo,Japan,38.90719185337821,141.56990188282552,35.6858,139.7697,391.9786699721537
imgs_final_v1/99.jpg,"{""lat"": 40.7128, ""long"": -74.0060, ""city"": ""New York"", ""country"": ""United States""}",Niksar,Turkey,New York,United States,40.59187835860549,36.9497396301756,40.7128,-74.006,8603.822842094925
imgs_final_v1/100.jpg,"{""lat"": 37.7749, ""long"": -122.4194, ""city"": ""San Francisco"", ""country"": ""USA""}",Bade,Taiwan,San Francisco,USA,24.95668492656037,121.29911203980323,37.7749,-122.4194,10382.668832142466
imgs_final_v1/101.jpg,"{""lat"": 35.6818, ""long"": 127.2324, ""city"": ""Tokyo"", ""country"": ""Japan""}",Niihama,Japan,Tokyo,Japan,33.96816134908113,133.28376575375907,35.6818,127.2324,584.1840336843778
imgs_final_v1/102.jpg,"{""lat"": 13.7379, ""long"": 101.5104, ""city"": ""Taipei"", ""country"": ""Taiwan""}",Binmaley,Philippines,Taipei,Taiwan,16.031135039842606,120.26923710882834,13.7379,101.5104,2031.2027081988435
imgs_final_v1/103.jpg,"{""lat"": 10.0, ""long"": 100.0, ""city"": ""Kuala Lumpur"", ""country"": ""Malaysia""}",Palopo,Indonesia,Kuala Lumpur,Malaysia,-2.998997521317776,120.2011890206204,10.0,100.0,2663.474613752811
imgs_final_v1/104.jpg,"{""lat"": 13.537, ""long"": 100.543, ""city"": ""Bali"", ""country"": ""Indonesia""}",Opol,Philippines,Bali,Indonesia,8.520693707211997,124.56917414265494,13.537,100.543,2679.299553001513
imgs_final_v1/105.jpg,"{""lat"": 13.7678, ""long"": 101.5104, ""city"": ""Manila"", ""country"": ""Philippines""}",San Andres,Philippines,Manila,Philippines,14.573961017653533,121.00323713984282,13.7678,101.5104,2102.823945433232
imgs_final_v1/106.jpg,"{""lat"": 7.0, ""long"": 116.3, ""city"": ""Kuala Lumpur"", ""country"": ""Malaysia""}",Kratie,Cambodia,Kuala Lumpur,Malaysia,12.480168561393953,106.0314899528864,7.0,116.3,1279.2912326018682
imgs_final_v1/107.jpg,"{""lat"": 13.5, ""long"": 121.0, ""city"": ""Manila"", ""country"": ""Philippines""}",Upi,Philippines,Manila,Philippines,7.009794503577773,124.16340704739936,13.5,121.0,800.3044711679433
imgs_final_v1/108.jpg,"{""lat"": -7.0537, ""long"": 114.8033, ""city"": ""Jakarta"", ""country"": ""Indonesia""}",Buhi,Philippines,Jakarta,Indonesia,13.434724989010451,123.51802095898135,-7.0537,114.8033,2473.105657361342
imgs_final_v1/109.jpg,"{""lat"": 13.937, ""long"": 100.543, ""city"": ""Bangkok"", ""country"": ""Thailand""}",Solana,Philippines,Bangkok,Thailand,17.652658478174605,121.69086259365356,13.937,100.543,2298.724768444813
imgs_final_v1/110.jpg,"{""lat"": 13.987, ""long"": 121.063, ""city"": ""Manila"", ""country"": ""Philippines""}",Tigbauan,Philippines,Manila,Philippines,10.674502440714036,122.37718580239188,13.987,121.063,395.022717310252
imgs_final_v1/111.jpg,"{""lat"": 35.6858, ""long"": 139.6823, ""city"": ""Tokyo"", ""country"": ""Japan""}",Matsubara,Japan,Tokyo,Japan,34.582755401160895,135.548800544812,35.6858,139.6823,395.3489399131225
imgs_final_v1/112.jpg,"{""lat"": 35.1378, ""long"": 139.7693, ""city"": ""Tokyo"", ""country"": ""Japan""}",Urasoe,Japan,Tokyo,Japan,26.245107926832763,127.72262001625796,35.1378,139.7693,1515.8745622437025
imgs_final_v1/113.jpg,"{""lat"": 40.7128, ""long"": -74.0060, ""city"": ""New York"", ""country"": ""USA""}",Lüleburgaz,Turkey,New York,USA,41.4069104520168,27.357193964653728,40.7128,-74.006,7936.36702068988
imgs_final_v1/114.jpg,"{""lat"": -33.867, ""long"": 151.203, ""city"": ""Sydney"", ""country"": ""Australia""}",Ceyhan,Turkey,Sydney,Australia,37.02778600059378,35.81351962413544,-33.867,151.203,14266.599860977729
imgs_final_v1/115.jpg,"{""lat"": 35.6858, ""long"": 139.6912, ""city"": ""Tokyo"", ""country"": ""Japan""}",Mobara,Japan,Tokyo,Japan,35.42744651591396,140.28726629426947,35.6858,139.6912,61.09618125703061
imgs_final_v1/116.jpg,"{""lat"": 33.9588, ""long"": 35.2785, ""city"": ""Tel Aviv"", ""country"": ""Israel""}",Bené Beraq,Israel,Tel Aviv,Israel,32.08344552680947,34.83411288270623,33.9588,35.2785,212.60518484894044
imgs_final_v1/117.jpg,"{""lat"": 35.6875, ""long"": 139.6855, ""city"": ""Tokyo"", ""country"": ""Japan""}",Fujimi,Japan,Tokyo,Japan,35.85587061626127,139.54971593455917,35.6875,139.6855,22.37362414627752
imgs_final_v1/118.jpg,"{""lat"": 10.0, ""long"": 118.0, ""city"": ""Taipei"", ""country"": ""Taiwan""}",Bato,Philippines,Taipei,Taiwan,13.356349059942032,123.36744132782567,10.0,118.0,693.382128550595
imgs_final_v1/119.jpg,"{""lat"": 35.6875, ""long"": 139.685, ""city"": ""Tokyo"", ""country"": ""Japan""}",Ishikari,Japan,Tokyo,Japan,43.166194208291984,141.3148908409284,35.6875,139.685,843.2436261814738
imgs_final_v1/120.jpg,"{""lat"": 35.68583, ""long"": 139.69122, ""city"": ""Tokyo"", ""country"": ""Japan""}",Kyōtanabe,Japan,Tokyo,Japan,34.814617250856585,135.76798289897613,35.68583,139.69122,369.1598162892077
imgs_final_v1/121.jpg,"{""lat"": -10.5, ""long"": -66.1, ""city"": ""Santo Domingo"", ""country"": ""Dominican Republic""}",San Andrés,Colombia,Santo Domingo,Dominican Republic,12.583704989609611,-81.70008286011802,-10.5,-66.1,3091.2029872719854
imgs_final_v1/122.jpg,"{""lat"": 35.6875, ""long"": 139.6875, ""city"": ""Tokyo"", ""country"": ""Japan""}",Natori-shi,Japan,Tokyo,Japan,38.17128137687871,140.89198436427412,35.6875,139.6875,296.2008398192782
imgs_final_v1/123.jpg,"{""lat"": 35.6875, ""long"": 139.6825, ""city"": ""Tokyo"", ""country"": ""Japan""}",Kashiwara,Japan,Tokyo,Japan,34.51570295475219,135.80045955515018,35.6875,139.6825,376.3929789907119
imgs_final_v1/124.jpg,"{""lat"": 1.23456, ""long"": 123.45678, ""city"": ""Manila"", ""country"": ""Philippines""}",San Juan,Philippines,Manila,Philippines,14.604092892091671,121.03106744123376,1.23456,123.45678,1510.3244428226026
imgs_final_v1/125.jpg,"{""lat"": 13.567, ""long"": 100.543, ""city"": ""Manila"", ""country"": ""Philippines""}",Maramag,Philippines,Manila,Philippines,7.763953556315781,125.00457484946956,13.567,100.543,2747.8732689854896
imgs_final_v1/126.jpg,"{""lat"": 35.6875, ""long"": 139.6833, ""city"": ""Tokyo"", ""country"": ""Japan""}",Settsu,Japan,Tokyo,Japan,34.777778194493244,135.56381950689214,35.6875,139.6833,387.5530627455762
imgs_final_v1/127.jpg,"{""lat"": 40.7128, ""long"": -74.0060, ""city"": ""New York"", ""country"": ""United States""}",Giresun,Turkey,New York,United States,40.91526738489111,38.39084386587094,40.7128,-74.006,8666.432618636785
imgs_final_v1/128.jpg,"{""lat"": 11.537, ""long"": 79.955, ""city"": ""Bengaluru"", ""country"": ""India""}",Ponnūru,India,Bengaluru,India,16.066200217595636,80.56579424187187,11.537,79.955,507.9220154566841
imgs_final_v1/129.jpg,"{""lat"": 13.537, ""long"": 119.553, ""city"": ""Taipei"", ""country"": ""Taiwan""}",Carcar,Philippines,Taipei,Taiwan,10.120353352637183,123.63079411481604,13.537,119.553,584.1443306261655
imgs_final_v1/130.jpg,"{""lat"": 10.0, ""long"": 120.0, ""city"": ""Manila"", ""country"": ""Philippines""}",Caramoan,Philippines,Manila,Philippines,13.77041763814576,123.86252826685084,10.0,120.0,593.579849796512
imgs_final_v1/131.jpg,"{""lat"": 35.6875, ""long"": 139.6875, ""city"": ""Tokyo"", ""country"": ""Japan""}",Tsuruga,Japan,Tokyo,Japan,35.64405418481481,136.054486643272,35.6875,139.6875,328.21712269868954
imgs_final_v1/132.jpg,"{""lat"": 10.0, ""long"": 100.0, ""city"": ""Jakarta"", ""country"": ""Indonesia""}",Plaridel,Philippines,Jakarta,Indonesia,14.886401661168543,120.85766200324052,10.0,100.0,2327.7123834779786
imgs_final_v1/133.jpg,"{""lat"": 35.6875, ""long"": 139.6833, ""city"": ""Tokyo"", ""country"": ""Japan""}",Higashi-Matsuyama,Japan,Tokyo,Japan,36.04243171849999,139.39861737567884,35.6875,139.6833,47.071280505103054
imgs_final_v1/134.jpg,"{""lat"": 35.6875, ""long"": 139.6875, ""city"": ""Tokyo"", ""country"": ""Japan""}",Jōsō,Japan,Tokyo,Japan,36.02300549047806,139.99472131669688,35.6875,139.6875,46.45842742726512
imgs_final_v1/135.jpg,"{""lat"": 35.6875, ""long"": 139.685, ""city"": ""Tokyo"", ""country"": ""Japan""}",Mitoyo,Japan,Tokyo,Japan,34.18241454253857,133.7139776463439,35.6875,139.685,569.3395545851617
imgs_final_v1/136.jpg,"{""lat"": 1.15, ""long"": 101.5, ""city"": ""Kuala Lumpur"", ""country"": ""Malaysia""}",Bukittinggi,Indonesia,Kuala Lumpur,Malaysia,-0.3051481653977979,100.3706237948775,1.15,101.5,204.8163732694289
imgs_final_v1/137.jpg,"{""lat"": 52.5228, ""long"": 21.0532, ""city"": ""Minsk"", ""country"": ""Belarus""}",Polatlı,Turkey,Minsk,Belarus,39.58337100273954,32.147427691145275,52.5228,21.0532,1669.9361922211383
imgs_final_v1/138.jpg,"{""lat"": 35.6875, ""long"": 139.6825, ""city"": ""Tokyo"", ""country"": ""Japan""}",Fujimino,Japan,Tokyo,Japan,35.880392932299685,139.52033153159834,35.6875,139.6825,25.96217013566948
imgs_final_v1/139.jpg,"{""lat"": 10.0, ""long"": 77.0, ""city"": ""Bhopal"", ""country"": ""India""}",Hassan,India,Bhopal,India,13.011901277175111,76.06951355196368,10.0,77.0,349.91419012567155
imgs_final_v1/140.jpg,"{""lat"": 13.7598, ""long"": 100.5368, ""city"": ""Bangkok"", ""country"": ""Thailand""}",Samut Sakhon,Thailand,Bangkok,Thailand,13.547976894495678,100.27699369560152,13.7598,100.5368,36.6449322258285
imgs_final_v1/141.jpg,"{""lat"": 13.9378, ""long"": 121.8793, ""city"": ""Manila"", ""country"": ""Philippines""}",Mulanay,Philippines,Manila,Philippines,13.52182549224002,122.40553498939929,13.9378,121.8793,73.28386450638985
imgs_final_v1/142.jpg,"{""lat"": -10.0, ""long"": 100.0, ""city"": ""Puerto Rico"", ""country"": ""United States""}",El Salvador,Philippines,Puerto Rico,United States,8.56867873121172,124.52050850976048,-10.0,100.0,3410.3801410578444
imgs_final_v1/143.jpg,"{""lat"": -23.562, ""long"": 151.203, ""city"": ""São Paulo"", ""country"": ""Brazil""}",Recife,Brazil,São Paulo,Brazil,-8.049064386956662,-34.89876197183799,-23.562,151.203,16438.087581444688
imgs_final_v1/144.jpg,"{""lat"": -33.867, ""long"": 151.203, ""city"": ""Sydney"", ""country"": ""Australia""}",Goiânia,Brazil,Sydney,Australia,-16.666859030516495,-49.249056625953365,-33.867,151.203,13992.432386868995
imgs_final_v1/145.jpg,"{""lat"": 40.1225, ""long"": -74.0060, ""city"": ""New York"", ""country"": ""United States""}",Porto Alegre,Brazil,New York,United States,-30.032830610377392,-51.23128859074208,40.1225,-74.006,8147.280924876554
imgs_final_v1/146.jpg,"{""lat"": -33.867, ""long"": 151.203, ""city"": ""Sydney"", ""country"": ""Australia""}",Barranquilla,Colombia,Sydney,Australia,10.98326903022407,-74.80204585626224,-33.867,151.203,14705.409458923445
imgs_final_v1/147.jpg,"{""lat"": -23.562, ""long"": -48.482, ""city"": ""São Paulo"", ""country"": ""Brazil""}",Guarulhos,Brazil,São Paulo,Brazil,-23.4622590660828,-46.53280965066089,-23.562,-48.482,199.05301789129527
imgs_final_v1/148.jpg,"{""lat"": -26.7942, ""long"": -43.5063, ""city"": ""Santiago"", ""country"": ""Chile""}",Belém,Brazil,Santiago,Chile,-1.4554059923272589,-48.50489883236542,-26.7942,-43.5063,2867.650806727247
imgs_final_v1/149.jpg,"{""lat"": 40.4124, ""long"": -74.0060, ""city"": ""New York"", ""country"": ""United States""}",Porto,Portugal,New York,United States,41.16206770976006,-8.621401550516314,40.4124,-74.006,5368.793732927418
imgs_final_v1/150.jpg,"{""lat"": 37.7749, ""long"": -122.4194, ""city"": ""San Francisco"", ""country"": ""USA""}",Rosario,Argentina,San Francisco,USA,-32.95808481687659,-60.63908025875446,37.7749,-122.4194,10132.696617523005
imgs_final_v1/151.jpg,"{""lat"": -33.8728, ""long"": 151.2124, ""city"": ""Sydney"", ""country"": ""Australia""}",Campinas,Brazil,Sydney,Australia,-22.906159355041748,-47.06010275758469,-33.8728,151.2124,13412.066893793835
imgs_final_v1/152.jpg,"{""lat"": 37.7749, ""long"": -122.4194, ""city"": ""San Francisco"", ""country"": ""USA""}",Arequipa,Peru,San Francisco,USA,-16.400044883944894,-71.53217943138266,37.7749,-122.4194,8030.261206538569
imgs_final_v1/153.jpg,"{""lat"": -33.8675, ""long"": 151.2108, ""city"": ""Sydney"", ""country"": ""Australia""}",Maceió,Brazil,Sydney,Australia,-9.664788997619858,-35.734943472929615,-33.8675,151.2108,15119.203094731243
imgs_final_v1/154.jpg,"{""lat"": -23.537, ""long"": -48.483, ""city"": ""São Paulo"", ""country"": ""Brazil""}",Teresina,Brazil,São Paulo,Brazil,-5.095011453348814,-42.803832343652765,-23.537,-48.483,2139.0877604047064
imgs_final_v1/155.jpg,"{""lat"": -10.0, ""long"": -66.0, ""city"": ""Santo Domingo"", ""country"": ""Dominican Republic""}",Cartagena,Colombia,Santo Domingo,Dominican Republic,10.40027234646832,-75.50084068497847,-10.0,-66.0,2499.9821976884823
imgs_final_v1/156.jpg,"{""lat"": 37.7749, ""long"": -122.4194, ""city"": ""San Francisco"", ""country"": ""USA""}",Santiago del Estero,Argentina,San Francisco,USA,-27.78194408313195,-64.26600409484509,37.7749,-122.4194,9475.14185574276
imgs_final_v1/157.jpg,"{""lat"": -33.867, ""long"": 151.203, ""city"": ""Sydney"", ""country"": ""Australia""}",Campo Grande,Brazil,Sydney,Australia,-20.48313933937218,-54.61609596592256,-33.867,151.203,13381.578253989028
imgs_final_v1/158.jpg,"{""lat"": 34.0522, ""long"": -118.2437, ""city"": ""Los Angeles"", ""country"": ""USA""}",São Gonçalo,Brazil,Los Angeles,USA,-22.82672632810613,-43.05473562861021,34.0522,-118.2437,10147.835826059089
imgs_final_v1/159.jpg,"{""lat"": 23.977, ""long"": 119.523, ""city"": ""Taipei"", ""country"": ""Taiwan""}",Bucaramanga,Colombia,Taipei,Taiwan,7.133160838291886,-73.00139391541326,23.977,119.523,16298.319338519355
imgs_final_v1/160.jpg,"{""lat"": -33.866, ""long"": 151.203, ""city"": ""Sydney"", ""country"": ""Australia""}",Cochabamba,Bolivia,Sydney,Australia,-17.389369237582656,-66.15953117200434,-33.866,151.203,13076.268507920146
imgs_final_v1/161.jpg,"{""lat"": -23.537, ""long"": -48.697, ""city"": ""São Paulo"", ""country"": ""Brazil""}",Iguaçu,Brazil,São Paulo,Brazil,-22.739295115882648,-43.46850509559496,-23.537,-48.697,541.8893371392189
imgs_final_v1/162.jpg,"{""lat"": -33.867, ""long"": 151.203, ""city"": ""Sydney"", ""country"": ""Australia""}",João Pessoa,Brazil,Sydney,Australia,-7.12045926817026,-34.88092043194833,-33.867,151.203,15412.594681814007
imgs_final_v1/163.jpg,"{""lat"": -33.867, ""long"": 151.203, ""city"": ""Sydney"", ""country"": ""Australia""}",São Bernardo do Campo,Brazil,Sydney,Australia,-23.69886991693979,-46.55024925374826,-33.867,151.203,13344.292193187255
imgs_final_v1/164.jpg,"{""lat"": -10.000, ""long"": -66.000, ""city"": ""Santo Domingo"", ""country"": ""Dominican Republic""}",Cúcuta,Colombia,Santo Domingo,Dominican Republic,7.893533605579629,-72.5027870488522,-10.0,-66.0,2115.9372686349925
imgs_final_v1/165.jpg,"{""lat"": -23.562, ""long"": -48.816, ""city"": ""São Paulo"", ""country"": ""Brazil""}",Natal,Brazil,São Paulo,Brazil,-5.783913092152688,-35.19937227404302,-23.562,-48.816,2455.970653829766
imgs_final_v1/166.jpg,"{""lat"": 37.7749, ""long"": -122.4194, ""city"": ""San Francisco"", ""country"": ""USA""}",Santo André,Brazil,San Francisco,USA,-23.65766603953748,-46.534024045695205,37.7749,-122.4194,10449.072756529737
imgs_final_v1/167.jpg,"{""lat"": -23.5378, ""long"": -48.4363, ""city"": ""São Paulo"", ""country"": ""Brazil""}",Osasco,Brazil,São Paulo,Brazil,-23.53418215506497,-46.79194687024573,-23.5378,-48.4363,167.63241421057805
imgs_final_v1/168.jpg,"{""lat"": -33.867, ""long"": 151.203, ""city"": ""Sydney"", ""country"": ""Australia""}",Comodoro Rivadavia,Argentina,Sydney,Australia,-45.865956110835846,-67.48105837716584,-33.867,151.203,10335.04901056845
imgs_final_v1/169.jpg,"{""lat"": -23.562, ""long"": -48.812, ""city"": ""São Paulo"", ""country"": ""Brazil""}",Sorocaba,Brazil,São Paulo,Brazil,-23.50232813438489,-47.45856892591929,-23.562,-48.812,138.13786917603906
imgs_final_v1/170.jpg,"{""lat"": 40.7128, ""long"": -74.0060, ""city"": ""New York"", ""country"": ""USA""}",Concepción,Chile,New York,USA,-36.82889241425429,-73.05181270457545,40.7128,-74.006,8622.791733226495
imgs_final_v1/171.jpg,"{""lat"": -22.995, ""long"": -43.245, ""city"": ""Nashville"", ""country"": ""USA""}",Uberlândia,Brazil,Nashville,USA,-18.924577897873995,-48.288360307546064,-22.995,-43.245,692.0386944760486
imgs_final_v1/172.jpg,"{""lat"": -7.9537, ""long"": -66.1253, ""city"": ""Santo Domingo"", ""country"": ""Dominican Republic""}",Jaboatão,Brazil,Santo Domingo,Dominican Republic,-8.179523992518082,-35.00244504535887,-7.9537,-66.1253,3425.6975025639645
imgs_final_v1/173.jpg,"{""lat"": 37.7749, ""long"": -122.4194, ""city"": ""San Francisco"", ""country"": ""USA""}",Ribeirão Prêto,Brazil,San Francisco,USA,-21.1771964286504,-47.80649899754509,37.7749,-122.4194,10171.44347418495
imgs_final_v1/174.jpg,"{""lat"": -33.867, ""long"": 151.203, ""city"": ""Sydney"", ""country"": ""Australia""}",São José dos Campos,Brazil,Sydney,Australia,-23.1801152561692,-45.88757793964973,-33.867,151.203,13419.004227144407
imgs_final_v1/175.jpg,"{""lat"": 37.7749, ""long"": -122.4194, ""city"": ""San Francisco"", ""country"": ""USA""}",Guadalupe,Mexico,San Francisco,USA,25.676772998699665,-100.25976927902184,37.7749,-122.4194,2480.281693095741
imgs_final_v1/176.jpg,"{""lat"": -33.8928, ""long"": 151.2123, ""city"": ""Sydney"", ""country"": ""Australia""}",Mar del Plata,Argentina,Sydney,Australia,-38.00044401305316,-57.54923447884758,-33.8928,151.2123,11486.70547643104
imgs_final_v1/177.jpg,"{""lat"": 30.0, ""long"": 116.6, ""city"": ""Beijing"", ""country"": ""China""}",Soledad,Colombia,Beijing,China,10.917041505195522,-74.74966437573205,30.0,116.6,15305.850015313485
imgs_final_v1/178.jpg,"{""lat"": -23.562, ""long"": 151.303, ""city"": ""São Paulo"", ""country"": ""Brazil""}",Aracaju,Brazil,São Paulo,Brazil,-10.91562564534408,-37.05041633316,-23.562,151.303,16075.166733050515
imgs_final_v1/179.jpg,"{""lat"": 13.567, ""long"": 121.878, ""city"": ""Manila"", ""country"": ""Philippines""}",Villavicencio,Colombia,Manila,Philippines,4.151298602404859,-73.63376028509974,13.567,121.878,17405.02923913826
imgs_final_v1/180.jpg,"{""lat"": -10.000, ""long"": -66.000, ""city"": ""Santo Domingo"", ""country"": ""Dominican Republic""}",Cuiabá,Brazil,Santo Domingo,Dominican Republic,-15.597285018773992,-56.097243112553386,-10.0,-66.0,1240.6318468063362
imgs_final_v1/181.jpg,"{""lat"": -33.867, ""long"": 151.203, ""city"": ""Sydney"", ""country"": ""Australia""}",Contagem,Brazil,Sydney,Australia,-19.932694970124167,-44.05366864659584,-33.867,151.203,13818.239235324088
imgs_final_v1/182.jpg,"{""lat"": 37.7749, ""long"": -122.4194, ""city"": ""San Francisco"", ""country"": ""USA""}",Joinvile,Brazil,San Francisco,USA,-26.320250618088767,-48.845139179160284,37.7749,-122.4194,10461.948597413291
imgs_final_v1/183.jpg,"{""lat"": -10.00000, ""long"": -34.00000, ""city"": ""Rio de Janeiro"", ""country"": ""Brazil""}",Feira de Santana,Brazil,Rio de Janeiro,Brazil,-12.24998354465714,-38.95131187507791,-10.0,-34.0,595.2957060400199
imgs_final_v1/184.jpg,"{""lat"": 37.7749, ""long"": -122.4194, ""city"": ""San Francisco"", ""country"": ""USA""}",San Miguel de Tucumán,Argentina,San Francisco,USA,-26.81547289132741,-65.21639140765635,37.7749,-122.4194,9332.448586081253
imgs_final_v1/185.jpg,"{""lat"": -33.867, ""long"": 151.203, ""city"": ""Sydney"", ""country"": ""Australia""}",Pereira,Colombia,Sydney,Australia,4.815524750710464,-75.6954893769794,-33.867,151.203,14204.5265827622
imgs_final_v1/186.jpg,"{""lat"": 33.9878, ""long"": -117.1613, ""city"": ""Los Angeles"", ""country"": ""USA""}",Puente Alto,Chile,Los Angeles,USA,-33.61606438636682,-70.56835393597305,33.9878,-117.1613,8951.461996320913
imgs_final_v1/187.jpg,"{""lat"": 22.2578, ""long"": 113.5123, ""city"": ""Taipei"", ""country"": ""Taiwan""}",Macau,Macau,Taipei,Taiwan,22.20199481041513,113.54542187188302,22.2578,113.5123,7.080119564631059
imgs_final_v1/188.jpg,"{""lat"": -33.867, ""long"": 151.213, ""city"": ""Sydney"", ""country"": ""Australia""}",Bello,Colombia,Sydney,Australia,6.333225280367201,-75.56603580275997,-33.867,151.213,14322.088143350891
imgs_final_v1/189.jpg,"{""lat"": -23.562, ""long"": -48.482, ""city"": ""São Paulo"", ""country"": ""Brazil""}",Londrina,Brazil,São Paulo,Brazil,-23.3101085052606,-51.162554499652046,-23.562,-48.482,274.9014471846847
imgs_final_v1/190.jpg,"{""lat"": 31.1375, ""long"": 34.1055, ""city"": ""Istanbul"", ""country"": ""Turkey""}",Chiclayo,Peru,Istanbul,Turkey,-6.76307024532495,-79.83624619414881,31.1375,34.1055,12669.833771203375
imgs_final_v1/191.jpg,"{""lat"": 40.4052, ""long"": -74.0060, ""city"": ""New York"", ""country"": ""USA""}",Palma,Spain,New York,USA,39.56776973449995,2.650230240151517,40.4052,-74.006,6309.754218556787
imgs_final_v1/192.jpg,"{""lat"": -26.7942, ""long"": 148.1963, ""city"": ""Melbourne"", ""country"": ""Australia""}",Valledupar,Colombia,Melbourne,Australia,10.482313197990525,-73.24915136688382,-26.7942,148.1963,15314.563485677974
imgs_final_v1/193.jpg,"{""lat"": -23.537, ""long"": -48.483, ""city"": ""São Paulo"", ""country"": ""Brazil""}",Ibagué,Colombia,São Paulo,Brazil,4.433023993192872,-75.2347970298187,-23.537,-48.483,4252.798142539811
imgs_final_v1/194.jpg,"{""lat"": -33.867, ""long"": 151.203, ""city"": ""Sydney"", ""country"": ""Australia""}",Juiz de Fora,Brazil,Sydney,Australia,-21.7624650741277,-43.348663243166165,-33.867,151.203,13640.32307259293
imgs_final_v1/195.jpg,"{""lat"": 40.7128, ""long"": -74.0060, ""city"": ""New York"", ""country"": ""United States""}",Santa Cruz,Spain,New York,United States,28.46556243286284,-16.251078196967836,40.7128,-74.006,5360.585203890273
imgs_final_v1/196.jpg,"{""lat"": -33.867, ""long"": 151.203, ""city"": ""Sydney"", ""country"": ""Australia""}",Florianópolis,Brazil,Sydney,Australia,-27.612243365225808,-48.48535683502702,-33.867,151.203,12870.943391726383
imgs_final_v1/197.jpg,"{""lat"": -33.867, ""long"": 151.203, ""city"": ""Sydney"", ""country"": ""Australia""}",Salta,Argentina,Sydney,Australia,-24.783342112743625,-65.41582722032066,-33.867,151.203,12432.251899381925
imgs_final_v1/198.jpg,"{""lat"": -33.867, ""long"": 151.203, ""city"": ""Sydney"", ""country"": ""Australia""}",Montería,Colombia,Sydney,Australia,8.750199356623142,-75.88331561791306,-33.867,151.203,14461.812055629873
imgs_final_v1/199.jpg,"{""lat"": -34.0000, ""long"": 149.1000, ""city"": ""Melbourne"", ""country"": ""Australia""}",Soacha,Colombia,Melbourne,Australia,4.587760165377832,-74.22174729248775,-34.0,149.1,14481.522257608023
imgs_final_v1/200.jpg,"{""lat"": -23.537, ""long"": -48.483, ""city"": ""São Paulo"", ""country"": ""Brazil""}",Maipú,Chile,São Paulo,Brazil,-33.51539721061609,-70.7666160717648,-23.537,-48.483,2435.9856147268765
imgs_final_v1/201.jpg,"{""lat"": -33.867, ""long"": 151.203, ""city"": ""Sydney"", ""country"": ""Australia""}",Serra,Brazil,Sydney,Australia,-20.130248058347053,-40.30802242646988,-33.867,151.203,13888.226204346593
imgs_final_v1/202.jpg,"{""lat"": -33.867, ""long"": 151.203, ""city"": ""Sydney"", ""country"": ""Australia""}",Santa Marta,Colombia,Sydney,Australia,11.24236887792213,-74.20566968889861,-33.867,151.203,14774.933304467348
imgs_final_v1/203.jpg,"{""lat"": -10.0, ""long"": -66.0, ""city"": ""Santo Domingo"", ""country"": ""Dominican Republic""}",Macapá,Brazil,Santo Domingo,Dominican Republic,0.0318935187813399,-51.050676551762926,-10.0,-66.0,1994.838921664684
imgs_final_v1/204.jpg,"{""lat"": -23.562, ""long"": -48.828, ""city"": ""São Paulo"", ""country"": ""Brazil""}",Campos,Brazil,São Paulo,Brazil,-21.75391386692896,-41.32305065235112,-23.562,-48.828,795.7905306516703
imgs_final_v1/205.jpg,"{""lat"": 30.0378, ""long"": 35.2232, ""city"": ""Tel Aviv"", ""country"": ""Israel""}",Dakar,Senegal,Tel Aviv,Israel,14.6922576407018,-17.447544991898607,30.0378,35.2232,5626.331526626117
imgs_final_v1/206.jpg,"{""lat"": -23.537, ""long"": 13.352, ""city"": ""Johannesburg"", ""country"": ""South Africa""}",Soweto,South Africa,Johannesburg,South Africa,-26.26909228556632,27.85898959328156,-23.537,13.352,1493.4204019292763
imgs_final_v1/207.jpg,"{""lat"": -23.537, ""long"": 151.313, ""city"": ""São Paulo"", ""country"": ""Brazil""}",Mombasa,Kenya,São Paulo,Brazil,-4.0489102371714045,39.666348250932906,-23.537,151.313,12009.947451327853
imgs_final_v1/208.jpg,"{""lat"": 13.1375, ""long"": 100.0000, ""city"": ""Cape Town"", ""country"": ""South Africa""}",Pikine,Senegal,Cape Town,South Africa,14.750666195818914,-17.400864273289468,13.1375,100.0,12460.15894040822
imgs_final_v1/209.jpg,"{""lat"": 13.137, ""long"": 100.000, ""city"": ""Lagos"", ""country"": ""Nigeria""}",Aba,Nigeria,Lagos,Nigeria,5.116367523137168,7.365221428532617,13.137,100.0,10162.497315545636
imgs_final_v1/210.jpg,"{""lat"": 13.137, ""long"": 141.000, ""city"": ""Lagos"", ""country"": ""Nigeria""}",Benin City,Nigeria,Lagos,Nigeria,6.332268996848094,5.623373607572815,13.137,141.0,14632.31805774674
imgs_final_v1/211.jpg,"{""lat"": -1.0, ""long"": 1.0, ""city"": ""Nairobi"", ""country"": ""Kenya""}",Ikare,Nigeria,Nairobi,Kenya,7.516340203450662,5.749679530147743,-1.0,1.0,1083.638737826411
imgs_final_v1/212.jpg,"{""lat"": 13.537, ""long"": 76.855, ""city"": ""Hyderabad"", ""country"": ""India""}",Tamale,Ghana,Hyderabad,India,9.406650075105318,-0.8540684555771195,13.537,76.855,8447.43922978065
imgs_final_v1/213.jpg,"{""lat"": 10.0, ""long"": 30.0, ""city"": ""Lagos"", ""country"": ""Nigeria""}",Ogbomoso,Nigeria,Lagos,Nigeria,8.133058730101274,4.248926209815592,10.0,30.0,2834.487867955273
imgs_final_v1/214.jpg,"{""lat"": 0.0, ""long"": 0.0, ""city"": ""Lagos"", ""country"": ""Nigeria""}",Owerri,Nigeria,Lagos,Nigeria,5.484831888810086,7.034033351700899,0.0,0.0,990.88110386261
imgs_final_v1/215.jpg,"{""lat"": 0.0, ""long"": 0.0, ""city"": ""Nairobi"", ""country"": ""Kenya""}",Abeokuta,Nigeria,Nairobi,Kenya,7.16139581601549,3.3486852016842974,0.0,0.0,878.656746339028
imgs_final_v1/216.jpg,"{""lat"": 0.0, ""long"": 0.0, ""city"": ""Lagos"", ""country"": ""Nigeria""}",Ikeja,Nigeria,Lagos,Nigeria,6.599388377701928,3.3490061460828584,0.0,0.0,822.5277074485858
imgs_final_v1/217.jpg,"{""lat"": 1.0, ""long"": 0.0, ""city"": ""Lagos"", ""country"": ""Nigeria""}",Akure,Nigeria,Lagos,Nigeria,7.249323858324573,5.194716742013697,1.0,0.0,902.4781269014852
imgs_final_v1/218.jpg,"{""lat"": 7.0, ""long"": 11.0, ""city"": ""Lagos"", ""country"": ""Nigeria""}",Ilorin,Nigeria,Lagos,Nigeria,8.498735062216863,4.55036505332626,7.0,11.0,729.8693889979531
imgs_final_v1/219.jpg,"{""lat"": -33.867, ""long"": 151.203, ""city"": ""Sydney"", ""country"": ""Australia""}",Pietermaritzburg,South Africa,Sydney,Australia,-29.617825386363872,30.38239544639638,-33.867,151.203,10610.050217716716
imgs_final_v1/220.jpg,"{""lat"": 40.7128, ""long"": -74.0060, ""city"": ""New York"", ""country"": ""United States""}",Durban,South Africa,New York,United States,-29.881949850463208,31.05081640654826,40.7128,-74.006,13311.79559550072
imgs_final_v1/221.jpg,"{""lat"": 0.0, ""long"": 0.0, ""city"": ""Nairobi"", ""country"": ""Kenya""}",Kaduna,Nigeria,Nairobi,Kenya,10.515970388361682,7.433788271311769,0.0,0.0,1429.2949110257691
imgs_final_v1/222.jpg,"{""lat"": 40.7128, ""long"": -74.0060, ""city"": ""New York"", ""country"": ""United States""}",Pretoria,South Africa,New York,United States,-25.74564313273356,28.186944885345227,40.7128,-74.006,12821.977824723628
imgs_final_v1/223.jpg,"{""lat"": 0.0, ""long"": 0.0, ""city"": ""Nairobi"", ""country"": ""Kenya""}",Osogbo,Nigeria,Nairobi,Kenya,7.766257746951647,4.567371784052532,0.0,0.0,1001.048809694354
imgs_final_v1/224.jpg,"{""lat"": 10.0, ""long"": 100.0, ""city"": ""Bangkok"", ""country"": ""Thailand""}",Enugu,Nigeria,Bangkok,Thailand,6.452097745432337,7.510178257189634,10.0,100.0,10154.074522556008
imgs_final_v1/225.jpg,"{""lat"": 13.137, ""long"": 34.022, ""city"": ""Lagos"", ""country"": ""Nigeria""}",Bauchi,Nigeria,Lagos,Nigeria,10.314294024834975,9.844494874926394,13.137,34.022,2649.8459730058944
imgs_final_v1/226.jpg,"{""lat"": 13.5, ""long"": 10.0, ""city"": ""Kampala"", ""country"": ""Uganda""}",Lokoja,Nigeria,Kampala,Uganda,7.800429502578416,6.743749451307066,13.5,10.0,726.7477409993867
imgs_final_v1/227.jpg,"{""lat"": 30.0378, ""long"": 34.0533, ""city"": ""Riyadh"", ""country"": ""Saudi Arabia""}",Jalingo,Nigeria,Riyadh,Saudi Arabia,8.900156478135774,11.366686234965869,30.0378,34.0533,3329.247815272677
imgs_final_v1/228.jpg,"{""lat"": 10.0, ""long"": 100.0, ""city"": ""Kampala"", ""country"": ""Uganda""}",Jos,Nigeria,Kampala,Uganda,9.915718708811672,8.890817911504087,10.0,100.0,9936.675460063629
imgs_final_v1/229.jpg,"{""lat"": 35.23783, ""long"": 39.03242, ""city"": ""Istanbul"", ""country"": ""Turkey""}",Tunis,Tunisia,Istanbul,Turkey,36.80705357552371,10.182741509884526,35.23783,39.03242,2590.581448712089
imgs_final_v1/230.jpg,"{""lat"": 13.7375, ""long"": 73.9842, ""city"": ""Kampala"", ""country"": ""Uganda""}",Nakuru,Kenya,Kampala,Uganda,-0.2999505478959343,36.06726194857109,13.7375,73.9842,4457.334474188246
imgs_final_v1/231.jpg,"{""lat"": 7.0, ""long"": 3.0, ""city"": ""Lagos"", ""country"": ""Nigeria""}",Uyo,Nigeria,Lagos,Nigeria,5.034251755726194,7.927400070508835,7.0,3.0,587.0634003582552
imgs_final_v1/232.jpg,"{""lat"": -26.2078, ""long"": 178.5323, ""city"": ""Brisbane"", ""country"": ""Australia""}",Rustenburg,South Africa,Brisbane,Australia,-25.66675295391701,27.242403667533505,-26.2078,178.5323,13476.389847477269
imgs_final_v1/233.jpg,"{""lat"": 28.5669, ""long"": 77.2099, ""city"": ""Delhi"", ""country"": ""India""}",Touba,Senegal,Delhi,India,14.867487048487575,-15.884220792183203,28.5669,77.2099,9517.279554317904
imgs_final_v1/234.jpg,"{""lat"": -0.0537, ""long"": 31.0553, ""city"": ""Nairobi"", ""country"": ""Kenya""}",Ile-Ife,Nigeria,Nairobi,Kenya,7.465926133901547,4.5661229354276,-0.0537,31.0553,3053.747154625016
imgs_final_v1/235.jpg,"{""lat"": -33.867, ""long"": 151.203, ""city"": ""Sydney"", ""country"": ""Australia""}",Auckland,New Zealand,Sydney,Australia,-36.8391476656154,174.74049945212408,-33.867,151.203,2154.4516535746093
imgs_final_v1/236.jpg,"{""lat"": -33.8775, ""long"": 151.2099, ""city"": ""Sydney"", ""country"": ""Australia""}",Adelaide,Australia,Sydney,Australia,-34.92837334029183,138.5989927626993,-33.8775,151.2099,1162.093259623279
imgs_final_v1/237.jpg,"{""lat"": -33.867, ""long"": 151.203, ""city"": ""Sydney"", ""country"": ""Australia""}",Gold Coast,Australia,Sydney,Australia,-28.01634977710901,153.39894482697645,-33.867,151.203,683.3825209437902
imgs_final_v1/238.jpg,"{""lat"": 37.7749, ""long"": -122.4194, ""city"": ""San Francisco"", ""country"": ""USA""}",Albany,United States,San Francisco,USA,42.667287746281055,-73.79855528479976,37.7749,-122.4194,4106.615237369287
imgs_final_v1/239.jpg,"{""lat"": 22.5778, ""long"": 110.5323, ""city"": ""Taipei"", ""country"": ""Taiwan""}",Delhi,India,Taipei,Taiwan,28.60982954920972,77.23140836988715,22.5778,110.5323,3394.835937976659
imgs_final_v1/240.jpg,"{""lat"": 40.4051, ""long"": -74.0060, ""city"": ""New York"", ""country"": ""USA""}",Mexico City,Mexico,New York,USA,19.43304896517664,-99.13295655144036,40.4051,-74.006,3338.709644080525
imgs_final_v1/241.jpg,"{""lat"": 40.7128, ""long"": -74.0060, ""city"": ""New York"", ""country"": ""USA""}",New York,United States,New York,USA,40.69401046433117,-73.92423165454548,40.7128,-74.006,7.20246700802523
imgs_final_v1/242.jpg,"{""lat"": 55.7522, ""long"": 37.6195, ""city"": ""Moscow"", ""country"": ""Russia""}",Moscow,Russia,Moscow,Russia,55.75639653613484,37.618571821234966,55.7522,37.6195,0.4702341289264849
imgs_final_v1/243.jpg,"{""lat"": 40.4052, ""long"": -74.0060, ""city"": ""New York"", ""country"": ""USA""}",Buenos Aires,Argentina,New York,USA,-34.60467395068466,-58.38144818327224,40.4052,-74.006,8492.9998939635
imgs_final_v1/244.jpg,"{""lat"": 33.9878, ""long"": -117.1623, ""city"": ""Los Angeles"", ""country"": ""USA""}",Los Angeles,United States,Los Angeles,USA,34.11368174650145,-118.40775568336186,33.9878,-117.1623,115.59327472665548
imgs_final_v1/245.jpg,"{""lat"": 51.5084, ""long"": -0.1278, ""city"": ""London"", ""country"": ""United Kingdom""}",London,United Kingdom,London,United Kingdom,51.50714860501876,-0.1268291571093632,51.5084,-0.1278,0.1545217658778885
imgs_final_v1/246.jpg,"{""lat"": 48.8585, ""long"": 2.3522, ""city"": ""Paris"", ""country"": ""France""}",Paris,France,Paris,France,48.85704947575532,2.3544334889538825,48.8585,2.3522,0.2295951223171801
imgs_final_v1/247.jpg,"{""lat"": -33.867, ""long"": 151.203, ""city"": ""Sydney"", ""country"": ""Australia""}",Lima,Peru,Sydney,Australia,-12.05897583029632,-77.0378670252072,-33.867,151.203,12799.779260685304
imgs_final_v1/248.jpg,"{""lat"": 40.7128, ""long"": -74.0060, ""city"": ""New York"", ""country"": ""USA""}",Chicago,United States,New York,USA,41.837027134242895,-87.68653848087237,40.7128,-74.006,1148.842759405022
imgs_final_v1/249.jpg,"{""lat"": -33.867, ""long"": 151.203, ""city"": ""Sydney"", ""country"": ""Australia""}",Bogotá,Colombia,Sydney,Australia,4.711274059753804,-74.07313141559642,-33.867,151.203,14334.103226820716
imgs_final_v1/250.jpg,"{""lat"": 48.8588, ""long"": 2.3522, ""city"": ""Paris"", ""country"": ""France""}",Santiago,Chile,Paris,France,-33.43798554235089,-70.65134852867888,48.8588,2.3522,11646.95115860171
imgs_final_v1/251.jpg,"{""lat"": 30.4128, ""long"": -95.4932, ""city"": ""Houston"", ""country"": ""USA""}",Miami,United States,Houston,USA,25.78293804653676,-80.21064063619339,30.4128,-95.4932,1583.3486818622978
imgs_final_v1/252.jpg,"{""lat"": 30.0, ""long"": -95.0, ""city"": ""Houston"", ""country"": ""USA""}",Dallas,United States,Houston,USA,32.79436161824606,-96.76775896645825,30.0,-95.0,353.1079545903692
imgs_final_v1/253.jpg,"{""lat"": 37.4219, ""long"": -122.0843, ""city"": ""San Francisco"", ""country"": ""USA""}",Philadelphia,United States,San Francisco,USA,40.00783256461962,-75.135001806137,37.4219,-122.0843,4036.337213809604
imgs_final_v1/254.jpg,"{""lat"": 40.7128, ""long"": -74.0060, ""city"": ""New York"", ""country"": ""USA""}",Toronto,Canada,New York,USA,43.74234691962674,-79.37517791834443,40.7128,-74.006,555.6068245763627
imgs_final_v1/255.jpg,"{""lat"": 10.0, ""long"": 100.0, ""city"": ""Mexico City"", ""country"": ""Mexico""}",Monterrey,Mexico,Mexico City,Mexico,25.66693446902266,-100.29989664836444,10.0,100.0,15481.198801776614
imgs_final_v1/256.jpg,"{""lat"": 38.0972, ""long"": -77.0365, ""city"": ""Washington, D.C."", ""country"": ""United States""}",Atlanta,United States,"Washington, D.C.",United States,33.76182464945639,-84.42118600771505,38.0972,-77.0365,820.8184708032276
imgs_final_v1/257.jpg,"{""lat"": 39.0902, ""long"": -75.1632, ""city"": ""Philadelphia"", ""country"": ""USA""}",Washington,United States,Philadelphia,USA,38.90335948162329,-77.01728755365998,39.0902,-75.1632,161.56604937458158
imgs_final_v1/258.jpg,"{""lat"": 37.7749, ""long"": -122.4194, ""city"": ""San Francisco"", ""country"": ""USA""}",Melbourne,Australia,San Francisco,USA,-37.81328878505133,144.9645757043672,37.7749,-122.4194,12657.540938865232
imgs_final_v1/259.jpg,"{""lat"": 52.5235, ""long"": 13.4072, ""city"": ""Berlin"", ""country"": ""Germany""}",Berlin,Germany,Berlin,Germany,52.52080518444293,13.405306816949048,52.5235,13.4072,0.3258778126724442
imgs_final_v1/260.jpg,"{""lat"": 37.7749, ""long"": -122.4194, ""city"": ""San Francisco"", ""country"": ""United States""}",Boston,United States,San Francisco,United States,42.31791308328032,-71.08361946530576,37.7749,-122.4194,4332.568153135247
imgs_final_v1/261.jpg,"{""lat"": 32.0878, ""long"": -117.1623, ""city"": ""Las Vegas"", ""country"": ""USA""}",Phoenix,United States,Las Vegas,USA,33.5735779801536,-112.08877859881784,32.0878,-117.1623,501.9350058689856
imgs_final_v1/262.jpg,"{""lat"": 40.7128, ""long"": -73.9984, ""city"": ""New York"", ""country"": ""USA""}",Detroit,United States,New York,USA,42.3846905977286,-83.10191163064394,40.7128,-73.9984,779.6186409506715
imgs_final_v1/263.jpg,"{""lat"": 40.7128, ""long"": -74.0060, ""city"": ""New York"", ""country"": ""USA""}",Montréal,Canada,New York,USA,45.509635747225936,-73.56064424362475,40.7128,-74.006,534.6049630465089
imgs_final_v1/264.jpg,"{""lat"": 40.7128, ""long"": -74.0060, ""city"": ""New York"", ""country"": ""USA""}",Seattle,United States,New York,USA,47.62202999537895,-122.32549055535678,40.7128,-74.006,3864.828205311003
imgs_final_v1/265.jpg,"{""lat"": 37.7749, ""long"": -122.4194, ""city"": ""San Francisco"", ""country"": ""USA""}",Athens,Greece,San Francisco,USA,37.98521403683348,23.72955128976451,37.7749,-122.4194,10904.85926279277
imgs_final_v1/266.jpg,"{""lat"": 33.9878, ""long"": -117.1623, ""city"": ""Los Angeles"", ""country"": ""USA""}",San Diego,United States,Los Angeles,USA,32.83176454601221,-117.12217504052887,33.9878,-117.1623,128.59921674612738
imgs_final_v1/267.jpg,"{""lat"": -33.8628, ""long"": 151.2094, ""city"": ""Sydney"", ""country"": ""Australia""}",Guatemala City,Guatemala,Sydney,Australia,14.613286877157282,-90.53371266439704,-33.8628,151.2094,13498.864042352045
imgs_final_v1/268.jpg,"{""lat"": 53.5278, ""long"": -0.1124, ""city"": ""London"", ""country"": ""United Kingdom""}",Birmingham,United Kingdom,London,United Kingdom,52.480106489925326,-1.9001415908513235,53.5278,-0.1124,166.9674637902985
imgs_final_v1/269.jpg,"{""lat"": 40.7128, ""long"": -74.0060, ""city"": ""New York"", ""country"": ""USA""}",Minneapolis,United States,New York,USA,44.96280155005984,-93.2673410593423,40.7128,-74.006,1635.5476689220704
imgs_final_v1/270.jpg,"{""lat"": 30.1078, ""long"": -95.4232, ""city"": ""Dallas"", ""country"": ""USA""}",Tampa,United States,Dallas,USA,27.994715045330736,-82.4442430403977,30.1078,-95.4232,1282.549789716643
imgs_final_v1/271.jpg,"{""lat"": 50.9078, ""long"": 13.4112, ""city"": ""Berlin"", ""country"": ""Germany""}",Stuttgart,Germany,Berlin,Germany,48.77820102575984,9.180795400961122,50.9078,13.4112,384.7311639234335
imgs_final_v1/272.jpg,"{""lat"": 41.8977, ""long"": 12.4941, ""city"": ""Rome"", ""country"": ""Italy""}",Rome,Italy,Rome,Italy,41.8929752947487,12.484654964451629,41.8977,12.4941,0.9418915592411274
imgs_final_v1/273.jpg,"{""lat"": 37.7749, ""long"": -122.4194, ""city"": ""San Francisco"", ""country"": ""USA""}",Brooklyn,United States,San Francisco,USA,40.65036354624361,-73.95066851652173,37.7749,-122.4194,4135.06516107949
imgs_final_v1/274.jpg,"{""lat"": 39.2375, ""long"": -104.9325, ""city"": ""Denver"", ""country"": ""USA""}",Denver,United States,Denver,USA,39.762556732895725,-104.87610499289836,39.2375,-104.9325,58.583810166838965
imgs_final_v1/275.jpg,"{""lat"": 51.5084, ""long"": -0.1278, ""city"": ""London"", ""country"": ""United Kingdom""}",Hamburg,Germany,London,United Kingdom,53.55022776269527,9.999438766690906,51.5084,-0.1278,720.9660730354784
imgs_final_v1/276.jpg,"{""lat"": 47.6082, ""long"": -122.3309, ""city"": ""Seattle"", ""country"": ""USA""}",Vancouver,Canada,Seattle,USA,49.25070473954618,-123.1015180644996,47.6082,-122.3309,191.28110509642949
imgs_final_v1/277.jpg,"{""lat"": -23.562, ""long"": 151.308, ""city"": ""São Paulo"", ""country"": ""Brazil""}",Salvador,Brazil,São Paulo,Brazil,-12.975424683628503,-38.47574797043367,-23.562,151.308,15815.269225067676
imgs_final_v1/278.jpg,"{""lat"": 40.7128, ""long"": -73.9984, ""city"": ""New York"", ""country"": ""USA""}",Queens,United States,New York,USA,40.74830301169878,-73.79747899501032,40.7128,-73.9984,17.384182881104635
imgs_final_v1/279.jpg,"{""lat"": 37.7749, ""long"": -122.4194, ""city"": ""San Francisco"", ""country"": ""USA""}",Riverside,United States,San Francisco,USA,33.93743600782223,-117.39629750894927,37.7749,-122.4194,621.9071336661647
imgs_final_v1/280.jpg,"{""lat"": 32.0878, ""long"": -115.1823, ""city"": ""Las Vegas"", ""country"": ""USA""}",Las Vegas,United States,Las Vegas,USA,36.23436062614398,-115.26676823854802,32.0878,-115.1823,461.141933235358
imgs_final_v1/281.jpg,"{""lat"": 40.7128, ""long"": -74.0060, ""city"": ""New York"", ""country"": ""USA""}",Vienna,Austria,New York,USA,48.207056441060296,16.37132784223871,40.7128,-74.006,6796.233834762557
imgs_final_v1/282.jpg,"{""lat"": 39.0478, ""long"": -77.0362, ""city"": ""Washington, D.C."", ""country"": ""United States""}",Baltimore,United States,"Washington, D.C.",United States,39.30512917778447,-76.61309165960968,39.0478,-77.0362,46.35621453762633
imgs_final_v1/283.jpg,"{""lat"": 37.7749, ""long"": -122.4194, ""city"": ""San Francisco"", ""country"": ""USA""}",St. Louis,United States,San Francisco,USA,38.63530607140055,-90.24455419591928,37.7749,-122.4194,2798.5199382337587
imgs_final_v1/284.jpg,"{""lat"": 40.7128, ""long"": -73.9984, ""city"": ""New York"", ""country"": ""USA""}",Portland,United States,New York,USA,45.53729552211347,-122.65052879332714,40.7128,-73.9984,3923.6648328963815
imgs_final_v1/285.jpg,"{""lat"": 30.0825, ""long"": -95.4933, ""city"": ""Dallas"", ""country"": ""USA""}",San Antonio,United States,Dallas,USA,29.464623441243774,-98.52362126974236,30.0825,-95.4933,300.4266607663632
imgs_final_v1/286.jpg,"{""lat"": 37.7749, ""long"": -122.4194, ""city"": ""San Francisco"", ""country"": ""USA""}",Tijuana,Mexico,San Francisco,USA,32.52526213155608,-117.03506914041282,37.7749,-122.4194,761.5193379130229
imgs_final_v1/287.jpg,"{""lat"": -33.867, ""long"": 151.203, ""city"": ""Sydney"", ""country"": ""Australia""}",Ecatepec,Mexico,Sydney,Australia,19.61029368158158,-99.05953603429856,-33.867,151.203,12989.71370220584
imgs_final_v1/288.jpg,"{""lat"": 30.0, ""long"": -95.0, ""city"": ""Austin"", ""country"": ""USA""}",Austin,United States,Austin,USA,30.300737088502423,-97.7532800795936,30.0,-95.0,266.8284290236363
imgs_final_v1/289.jpg,"{""lat"": 32.0875, ""long"": -95.9999, ""city"": ""Dallas"", ""country"": ""USA""}",Orlando,United States,Dallas,USA,28.477806458366967,-81.33546756633628,32.0875,-95.9999,1462.8017927688973
imgs_final_v1/290.jpg,"{""lat"": 40.7128, ""long"": -74.0060, ""city"": ""New York"", ""country"": ""USA""}",Warsaw,Poland,New York,USA,52.22973813017073,21.00869933993966,40.7128,-74.006,6853.997286893023
imgs_final_v1/291.jpg,"{""lat"": 40.7128, ""long"": -74.0060, ""city"": ""New York"", ""country"": ""USA""}",Pittsburgh,United States,New York,USA,40.43863763356608,-79.97689337661362,40.7128,-74.006,505.11103460131454
imgs_final_v1/292.jpg,"{""lat"": 40.7128, ""long"": -73.9984, ""city"": ""New York"", ""country"": ""USA""}",Indianapolis,United States,New York,USA,39.7776234994416,-86.14602455982944,40.7128,-73.9984,1035.403415410212
imgs_final_v1/293.jpg,"{""lat"": 40.7128, ""long"": -74.0060, ""city"": ""New York"", ""country"": ""USA""}",Montevideo,Uruguay,New York,USA,-34.88266705491864,-56.18304048720592,40.7128,-74.006,8601.386631855214
imgs_final_v1/294.jpg,"{""lat"": 40.7128, ""long"": -74.0060, ""city"": ""New York"", ""country"": ""United States""}",Manhattan,United States,New York,United States,40.78316149960043,-73.96753605610216,40.7128,-74.006,8.468258040545123
imgs_final_v1/295.jpg,"{""lat"": 37.7749, ""long"": -122.4194, ""city"": ""San Francisco"", ""country"": ""United States""}",Cincinnati,United States,San Francisco,United States,39.1416044722868,-84.50684075263834,37.7749,-122.4194,3280.5516267427165
imgs_final_v1/296.jpg,"{""lat"": 38.0978, ""long"": -77.0365, ""city"": ""Washington, D.C."", ""country"": ""United States""}",Kansas City,United States,"Washington, D.C.",United States,39.12403736246388,-94.55341927933245,38.0978,-77.0365,1523.9067968460065
imgs_final_v1/297.jpg,"{""lat"": 40.7128, ""long"": -74.0060, ""city"": ""New York"", ""country"": ""USA""}",Cleveland,United States,New York,USA,41.477591722704354,-81.67940057592648,40.7128,-74.006,648.3973765205947
imgs_final_v1/298.jpg,"{""lat"": -33.8675, ""long"": 151.2103, ""city"": ""Sydney"", ""country"": ""Australia""}",León de los Aldama,Mexico,Sydney,Australia,21.11538419272953,-101.68375222239663,-33.8675,151.2103,12829.463729239762
imgs_final_v1/299.jpg,"{""lat"": 37.0422, ""long"": 126.9823, ""city"": ""Tokyo"", ""country"": ""Japan""}",Puebla,Mexico,Tokyo,Japan,19.033965378431606,-98.18264736823386,37.0422,126.9823,12187.624079682366
imgs_final_v1/300.jpg,"{""lat"": 40.7128, ""long"": -74.0060, ""city"": ""New York"", ""country"": ""USA""}",Columbus,United States,New York,USA,39.9867060111728,-82.98428028989724,40.7128,-74.006,764.7715944571264
imgs_final_v1/301.jpg,"{""lat"": -22.9878, ""long"": -43.5232, ""city"": ""São Paulo"", ""country"": ""Brazil""}",Panama City,Panama,São Paulo,Brazil,8.98451264512377,-79.51630724672833,-22.9878,-43.5232,5289.370775591966
imgs_final_v1/302.jpg,"{""lat"": 41.8781, ""long"": 12.5165, ""city"": ""Paris"", ""country"": ""France""}",Fano,Italy,Paris,France,43.83258959418063,13.01828478230383,41.8781,12.5165,221.1435379903191
imgs_final_v1/303.jpg,"{""lat"": 48.8566, ""long"": 2.3522, ""city"": ""Paris"", ""country"": ""France""}",Drancy,France,Paris,France,48.93072614591842,2.450003274725149,48.8566,2.3522,10.911490900213504
imgs_final_v1/304.jpg,"{""lat"": 48.567, ""long"": 2.352, ""city"": ""London"", ""country"": ""United Kingdom""}",Horishni Plavni,Ukraine,London,United Kingdom,49.017336994496205,33.665367322550686,48.567,2.352,2278.0287439151434
imgs_final_v1/305.jpg,"{""lat"": 51.7422, ""long"": -0.1278, ""city"": ""London"", ""country"": ""United Kingdom""}",Zaandam,Netherlands,London,United Kingdom,52.4334883013218,4.833274435516257,51.7422,-0.1278,347.49086871206003
imgs_final_v1/306.jpg,"{""lat"": 41.8977, ""long"": 12.5169, ""city"": ""Vienna"", ""country"": ""Austria""}",Teramo,Italy,Vienna,Austria,42.65934127346198,13.702879667299792,41.8977,12.5169,129.19818231817692
imgs_final_v1/307.jpg,"{""lat"": 55.7878, ""long"": 37.6232, ""city"": ""New York"", ""country"": ""USA""}",Kamensk-Ural’skiy,Russia,New York,USA,56.400817818933376,61.9347498411596,55.7878,37.6232,1501.6559287198445
imgs_final_v1/308.jpg,"{""lat"": 55.66283, ""long"": 12.51143, ""city"": ""Stockholm"", ""country"": ""Sweden""}",Borås,Sweden,Stockholm,Sweden,57.72170442263881,12.939140618258609,55.66283,12.51143,230.41995496507135
imgs_final_v1/309.jpg,"{""lat"": 40.4128, ""long"": -74.0060, ""city"": ""New York"", ""country"": ""United States""}",Castellammare di Stabia,Italy,New York,United States,40.69401676841981,14.479978837754842,40.4128,-74.006,7119.456813120618
imgs_final_v1/310.jpg,"{""lat"": 52.5218, ""long"": 13.4062, ""city"": ""Kiev"", ""country"": ""Ukraine""}",Uzhhorod,Ukraine,Kiev,Ukraine,48.62377119731184,22.29602331576741,52.5218,13.4062,762.0369794204212
imgs_final_v1/311.jpg,"{""lat"": 52.5378, ""long"": 13.4232, ""city"": ""Kassel"", ""country"": ""Germany""}",Nordre Fåle,Norway,Kassel,Germany,59.74874485473022,10.865808303805728,52.5378,13.4232,817.16468462546
imgs_final_v1/312.jpg,"{""lat"": 48.8584, ""long"": 2.3522, ""city"": ""Paris"", ""country"": ""France""}",Ravensburg,Germany,Paris,France,47.782960534827374,9.609830700155127,48.8584,2.3522,549.561538169304
imgs_final_v1/313.jpg,"{""lat"": 43.7375, ""long"": -79.0232, ""city"": ""New York"", ""country"": ""United States""}",Pau,France,New York,United States,43.301477421832736,-0.3705938640982376,43.7375,-79.0232,6084.257129908872
imgs_final_v1/314.jpg,"{""lat"": 50.8566, ""long"": 13.3732, ""city"": ""Paris"", ""country"": ""France""}",Goslar,Germany,Paris,France,51.90809786014675,10.430921586053095,50.8566,13.3732,235.27082849352385
imgs_final_v1/315.jpg,"{""lat"": 51.5084, ""long"": -0.1278, ""city"": ""London"", ""country"": ""United Kingdom""}",Breda,Netherlands,London,United Kingdom,51.5881900748539,4.7769849823694805,51.5084,-0.1278,339.2039929784146
imgs_final_v1/316.jpg,"{""lat"": 34.0522, ""long"": -118.2437, ""city"": ""Los Angeles"", ""country"": ""USA""}",Fiumicino,Italy,Los Angeles,USA,41.76725829637955,12.233796874374294,34.0522,-118.2437,10187.008887509652
imgs_final_v1/317.jpg,"{""lat"": 37.7749, ""long"": -122.4194, ""city"": ""San Francisco"", ""country"": ""USA""}",Siracusa,Italy,San Francisco,USA,37.070120487536926,15.287846695024056,37.7749,-122.4194,10628.268320597545
imgs_final_v1/318.jpg,"{""lat"": 40.4127, ""long"": -74.0060, ""city"": ""New York"", ""country"": ""United States""}",Manresa,Spain,New York,United States,41.73052015238425,1.8280785334252296,40.4127,-74.006,6139.0031226928295
imgs_final_v1/319.jpg,"{""lat"": 35.6875, ""long"": 139.685, ""city"": ""Tokyo"", ""country"": ""Japan""}",Suceava,Romania,Tokyo,Japan,47.65172890964818,26.2538539666692,35.6875,139.685,8636.279836102643
imgs_final_v1/320.jpg,"{""lat"": 40.7128, ""long"": -74.0060, ""city"": ""New York"", ""country"": ""USA""}",Giurgiu,Romania,New York,USA,43.89958796330846,25.974870492919177,40.7128,-74.006,7677.567973067128
imgs_final_v1/321.jpg,"{""lat"": 51.5085, ""long"": -0.1278, ""city"": ""London"", ""country"": ""United Kingdom""}",Genk,Belgium,London,United Kingdom,50.967907395876765,5.499712710198205,51.5085,-0.1278,396.25454428476166
imgs_final_v1/322.jpg,"{""lat"": 51.7422, ""long"": -0.1278, ""city"": ""London"", ""country"": ""United Kingdom""}",Katwijk,Netherlands,London,United Kingdom,52.1991518263764,4.415259917669202,51.7422,-0.1278,315.28026922636985
imgs_final_v1/323.jpg,"{""lat"": 52.5218, ""long"": 13.4083, ""city"": ""Copenhagen"", ""country"": ""Denmark""}",Przemyśl,Poland,Copenhagen,Denmark,49.78280676009595,22.765018047418305,52.5218,13.4083,719.459384108662
imgs_final_v1/324.jpg,"{""lat"": 48.8584, ""long"": 2.3522, ""city"": ""Paris"", ""country"": ""France""}",Trnava,Slovakia,Paris,France,48.37813119448258,17.587049705367164,48.8584,2.3522,1119.2789026916191
imgs_final_v1/325.jpg,"{""lat"": 59.9385, ""long"": 24.1532, ""city"": ""Karesuando"", ""country"": ""Finland""}",Vyborg,Russia,Karesuando,Finland,60.71778125848079,28.768304827937943,59.9385,24.1532,268.3425031665118
imgs_final_v1/326.jpg,"{""lat"": 40.7128, ""long"": -74.0060, ""city"": ""New York"", ""country"": ""United States""}",Amadora,Portugal,New York,United States,38.73318700740053,-9.232725094425598,40.7128,-74.006,5414.139387266599
imgs_final_v1/327.jpg,"{""lat"": 37.7749, ""long"": -122.4194, ""city"": ""San Francisco"", ""country"": ""USA""}",Quartu Sant’Elena,Italy,San Francisco,USA,39.23268781180931,9.181842259390356,37.7749,-122.4194,10129.052367785229
imgs_final_v1/328.jpg,"{""lat"": 48.5078, ""long"": 2.3483, ""city"": ""Paris"", ""country"": ""France""}",Euskirchen,Germany,Paris,France,50.658471940844045,6.793149446873724,48.5078,2.3483,399.7250974498893
imgs_final_v1/329.jpg,"{""lat"": 41.8979, ""long"": 12.5169, ""city"": ""Rome"", ""country"": ""Italy""}",Faenza,Italy,Rome,Italy,44.28565574212416,11.884493773881983,41.8979,12.5169,270.42421776775865
imgs_final_v1/330.jpg,"{""lat"": 51.5084, ""long"": -0.1278, ""city"": ""London"", ""country"": ""United Kingdom""}",Grays,United Kingdom,London,United Kingdom,51.47456590928474,0.3292024235734893,51.5084,-0.1278,31.8626685639901
imgs_final_v1/331.jpg,"{""lat"": 43.5378, ""long"": 2.1524, ""city"": ""Paris"", ""country"": ""France""}",Penafiel,Portugal,Paris,France,41.20496442307704,-8.284771822311935,43.5378,2.1524,895.0784076579018
imgs_final_v1/332.jpg,"{""lat"": 37.7749, ""long"": -122.4194, ""city"": ""San Francisco"", ""country"": ""USA""}",Wilmington,United States,San Francisco,USA,39.740261659284286,-75.5427762670991,37.7749,-122.4194,4023.882199778103
imgs_final_v1/333.jpg,"{""lat"": 51.50841, ""long"": -0.1278, ""city"": ""London"", ""country"": ""United Kingdom""}",Halmstad,Sweden,London,United Kingdom,56.673465599818726,12.85594754116882,51.50841,-0.1278,1020.5673181604716
imgs_final_v1/334.jpg,"{""lat"": 55.7875, ""long"": 37.6532, ""city"": ""Moscow"", ""country"": ""Russia""}",Noyabrsk,Russia,Moscow,Russia,63.200984751508415,75.45209230024977,55.7875,37.6532,2246.9793564037413
imgs_final_v1/335.jpg,"{""lat"": 51.5085, ""long"": -0.1278, ""city"": ""London"", ""country"": ""United Kingdom""}",Düren,Germany,London,United Kingdom,50.799065975963885,6.4836167807279805,51.5085,-0.1278,467.6432459163582
imgs_final_v1/336.jpg,"{""lat"": 34.0522, ""long"": 118.2437, ""city"": ""Los Angeles"", ""country"": ""USA""}",Ródos,Greece,Los Angeles,USA,36.4411132315452,28.22080417764119,34.0522,118.2437,7849.149057659487
imgs_final_v1/337.jpg,"{""lat"": 40.7128, ""long"": -74.0060, ""city"": ""New York"", ""country"": ""USA""}",Solnechnogorsk,Russia,New York,USA,56.18254199772492,36.98203279956974,40.7128,-74.006,7449.4741306556
imgs_final_v1/338.jpg,"{""lat"": 51.5085, ""long"": -0.1278, ""city"": ""London"", ""country"": ""United Kingdom""}",Dordrecht,Netherlands,London,United Kingdom,51.795192874830285,4.679581976464565,51.5085,-0.1278,333.1263417691692
imgs_final_v1/339.jpg,"{""lat"": 55.7578, ""long"": 37.6105, ""city"": ""New York"", ""country"": ""USA""}",Chaykovskiy,Russia,New York,USA,56.76650199545361,54.14768046561584,55.7578,37.6105,1024.884475037833
imgs_final_v1/340.jpg,"{""lat"": 50.8566, ""long"": 2.3522, ""city"": ""Paris"", ""country"": ""France""}",Hilden,Germany,Paris,France,51.170808237386645,6.939987445695128,50.8566,2.3522,322.7882102620312
imgs_final_v1/341.jpg,"{""lat"": 48.8566, ""long"": 2.3522, ""city"": ""Paris"", ""country"": ""France""}",Lünen,Germany,Paris,France,51.6165180970204,7.516896541499759,48.8566,2.3522,478.4515319067417
imgs_final_v1/342.jpg,"{""lat"": 48.8566, ""long"": 2.3522, ""city"": ""Paris"", ""country"": ""France""}",Marl,Germany,Paris,France,51.66778926836744,7.114927236145304,48.8566,2.3522,460.6189657662591
imgs_final_v1/343.jpg,"{""lat"": 51.5085, ""long"": -0.1278, ""city"": ""London"", ""country"": ""United Kingdom""}",Leeuwarden,Netherlands,London,United Kingdom,53.199584000362165,5.783218085383998,51.5085,-0.1278,443.1269874665773
imgs_final_v1/344.jpg,"{""lat"": 37.7749, ""long"": -122.4194, ""city"": ""San Francisco"", ""country"": ""USA""}",Darmstadt,Germany,San Francisco,USA,49.8717771645492,8.65117048287748,37.7749,-122.4194,9153.32217764904
imgs_final_v1/345.jpg,"{""lat"": 37.6775, ""long"": -122.4194, ""city"": ""San Francisco"", ""country"": ""USA""}",Alcalá de Guadaira,Spain,San Francisco,USA,37.332536774334336,-5.850703051679349,37.6775,-122.4194,9438.5476131038
imgs_final_v1/346.jpg,"{""lat"": 43.7375, ""long"": -79.0382, ""city"": ""New York"", ""country"": ""USA""}",Fréjus,France,New York,USA,43.432503221406456,6.735221943204338,43.7375,-79.0382,6568.39273340769
imgs_final_v1/347.jpg,"{""lat"": 40.7128, ""long"": -74.0060, ""city"": ""New York"", ""country"": ""USA""}",Novocheboksarsk,Russia,New York,USA,56.13180760451737,47.50023976759034,40.7128,-74.006,7926.660491797395
imgs_final_v1/348.jpg,"{""lat"": 48.8569, ""long"": 2.3522, ""city"": ""Paris"", ""country"": ""France""}",Sibay,Russia,Paris,France,52.6997347447715,58.648187755941095,48.8569,2.3522,3879.187309467552
imgs_final_v1/349.jpg,"{""lat"": 50.8578, ""long"": -0.1278, ""city"": ""London"", ""country"": ""United Kingdom""}",Weston-super-Mare,United Kingdom,London,United Kingdom,51.34445538997926,-2.976829525493587,50.8578,-0.1278,206.145801711363
imgs_final_v1/350.jpg,"{""lat"": 49.2378, ""long"": 24.4112, ""city"": ""Minsk"", ""country"": ""Belarus""}",Pyatigorsk,Russia,Minsk,Belarus,44.04981489681682,43.06516902929937,49.2378,24.4112,1531.3672181074512
imgs_final_v1/351.jpg,"{""lat"": 40.4124, ""long"": -7.1253, ""city"": ""Barcelona"", ""country"": ""Spain""}",Guadalajara,Spain,Barcelona,Spain,40.63479073886736,-3.1678029073583183,40.4124,-7.1253,335.3858025552958
imgs_final_v1/352.jpg,"{""lat"": 51.5085, ""long"": -0.1278, ""city"": ""London"", ""country"": ""United Kingdom""}",Deurne,Belgium,London,United Kingdom,51.223952301855455,4.4630182795176285,51.5085,-0.1278,320.22355634257985
imgs_final_v1/353.jpg,"{""lat"": 51.5085, ""long"": -0.1278, ""city"": ""London"", ""country"": ""United Kingdom""}",Batley,United Kingdom,London,United Kingdom,53.71579415631856,-1.6373294056945709,51.5085,-0.1278,265.7449400600273
imgs_final_v1/354.jpg,"{""lat"": 37.7749, ""long"": -122.4194, ""city"": ""San Francisco"", ""country"": ""USA""}",Split,Croatia,San Francisco,USA,43.50955199864442,16.441310168372052,37.7749,-122.4194,10071.240103878292
imgs_final_v1/355.jpg,"{""lat"": 53.5378, ""long"": -0.0923, ""city"": ""Birmingham"", ""country"": ""United Kingdom""}",Eastleigh,United Kingdom,Birmingham,United Kingdom,50.967378989871776,-1.3512105143410709,53.5378,-0.0923,298.3756137560514
imgs_final_v1/356.jpg,"{""lat"": 50.9378, ""long"": 13.4112, ""city"": ""Berlin"", ""country"": ""Germany""}",Trier,Germany,Berlin,Germany,49.755872846837086,6.642366759082952,50.9378,13.4112,497.7537401402083
imgs_final_v1/357.jpg,"{""lat"": 52.2178, ""long"": 4.8823, ""city"": ""Amsterdam"", ""country"": ""Netherlands""}",Jūrmala,Latvia,Amsterdam,Netherlands,56.96885305437781,23.77025617476664,52.2178,4.8823,1320.9788229152837
imgs_final_v1/358.jpg,"{""lat"": 51.5084, ""long"": -0.1278, ""city"": ""London"", ""country"": ""United Kingdom""}",Ahlen,Germany,London,United Kingdom,51.76425658483541,7.891343683516155,51.5084,-0.1278,553.8775014761866
imgs_final_v1/359.jpg,"{""lat"": 55.7878, ""long"": 37.6223, ""city"": ""New York"", ""country"": ""USA""}",Mineral’nyye Vody,Russia,New York,USA,44.21716345252507,43.13274235737477,55.7878,37.6223,1344.4648820366092
imgs_final_v1/360.jpg,"{""lat"": 48.8569, ""long"": 2.3522, ""city"": ""Paris"", ""country"": ""France""}",Podgorica,Montenegro,Paris,France,42.44190765862167,19.26099273220189,48.8569,2.3522,1490.7648246509489
imgs_final_v1/361.jpg,"{""lat"": 51.5085, ""long"": -0.1278, ""city"": ""London"", ""country"": ""United Kingdom""}",Bergheim,Germany,London,United Kingdom,50.96648987268611,6.647702723638684,51.5085,-0.1278,475.3588936848435
imgs_final_v1/362.jpg,"{""lat"": 39.9522, ""long"": 116.4073, ""city"": ""Beijing"", ""country"": ""China""}",Shali,Russia,Beijing,China,43.14877518807257,45.89966215641117,39.9522,116.4073,5699.879502604064
imgs_final_v1/363.jpg,"{""lat"": 51.5085, ""long"": -0.1278, ""city"": ""London"", ""country"": ""United Kingdom""}",Garbsen,Germany,London,United Kingdom,52.419345095096006,9.599777989387006,51.5085,-0.1278,673.5907791809334
imgs_final_v1/364.jpg,"{""lat"": 51.2078, ""long"": 3.4023, ""city"": ""Cologne"", ""country"": ""Germany""}",Kortrijk,Belgium,Cologne,Germany,50.82639217191523,3.2674381920683206,51.2078,3.4023,43.44714747859507
imgs_final_v1/365.jpg,"{""lat"": 52.5218, ""long"": 13.4062, ""city"": ""Kraków"", ""country"": ""Poland""}",Rybnik,Poland,Kraków,Poland,50.08357237272697,18.550926975152045,52.5218,13.4062,448.62467640952514
imgs_final_v1/366.jpg,"{""lat"": 37.7749, ""long"": -122.4194, ""city"": ""San Francisco"", ""country"": ""USA""}",Collado-Villalba,Spain,San Francisco,USA,40.633233032928295,-4.007300124838307,37.7749,-122.4194,9282.90439837581
imgs_final_v1/367.jpg,"{""lat"": 51.7422, ""long"": -0.1278, ""city"": ""London"", ""country"": ""United Kingdom""}",Lelystad,Netherlands,London,United Kingdom,52.50018237419368,5.482318274069562,51.7422,-0.1278,392.0736463710776
imgs_final_v1/368.jpg,"{""lat"": 52.2078, ""long"": -0.0823, ""city"": ""Bristol"", ""country"": ""United Kingdom""}",Doncaster,United Kingdom,Bristol,United Kingdom,53.52339468667402,-1.1333157306654793,52.2078,-0.0823,162.40712066663656
imgs_final_v1/369.jpg,"{""lat"": -23.987, ""long"": 151.223, ""city"": ""Brisbane"", ""country"": ""Australia""}",Ovar,Portugal,Brisbane,Australia,40.86760791652162,-8.634811256963971,-23.987,151.223,17363.86147372786
imgs_final_v1/370.jpg,"{""lat"": 48.8585, ""long"": 2.3522, ""city"": ""Paris"", ""country"": ""France""}",Lucerne,Switzerland,Paris,France,47.05103943856833,8.299173286845255,48.8585,2.3522,486.1584360219396
imgs_final_v1/371.jpg,"{""lat"": 40.7128, ""long"": -74.0060, ""city"": ""New York"", ""country"": ""USA""}",Ussuriysk,Russia,New York,USA,43.799593894072544,131.96751723542033,40.7128,-74.006,10264.826449188477
imgs_final_v1/372.jpg,"{""lat"": 40.7128, ""long"": -74.0060, ""city"": ""New York"", ""country"": ""United States""}",Alphen aan den Rijn,Netherlands,New York,United States,52.13457163624213,4.665289357591988,40.7128,-74.006,5857.233633919138
imgs_final_v1/373.jpg,"{""lat"": 51.5084, ""long"": -0.1278, ""city"": ""London"", ""country"": ""United Kingdom""}",Littlehampton,United Kingdom,London,United Kingdom,50.80856227718132,-0.5396937249645916,51.5084,-0.1278,82.95027434163856
imgs_final_v1/374.jpg,"{""lat"": 40.7128, ""long"": -74.0060, ""city"": ""New York"", ""country"": ""USA""}",Gallarate,Italy,New York,USA,45.66575890852476,8.799150604401914,40.7128,-74.006,6426.928743266549
imgs_final_v1/375.jpg,"{""lat"": 55.7878, ""long"": 37.6232, ""city"": ""New York"", ""country"": ""USA""}",Kansk,Russia,New York,USA,56.19978429906044,95.71761251481908,55.7878,37.6232,3504.3124844893973
imgs_final_v1/376.jpg,"{""lat"": 55.7628, ""long"": 37.6122, ""city"": ""New York"", ""country"": ""USA""}",Kuznetsk,Russia,New York,USA,53.115779080089645,46.59917908464064,55.7628,37.6122,650.7776975148333
imgs_final_v1/377.jpg,"{""lat"": 48.8569, ""long"": 2.3522, ""city"": ""Paris"", ""country"": ""France""}",Syzran,Russia,Paris,France,53.16573600006562,48.468495255395176,48.8569,2.3522,3204.368581777715
imgs_final_v1/378.jpg,"{""lat"": 31.0875, ""long"": 74.0533, ""city"": ""Jaipur"", ""country"": ""India""}",Bāri,India,Jaipur,India,26.63107049784401,77.61932407887478,31.0875,74.0533,605.0036559270629
imgs_final_v1/379.jpg,"{""lat"": 52.0878, ""long"": 4.3023, ""city"": ""Amsterdam"", ""country"": ""Netherlands""}",Alkmaar,Netherlands,Amsterdam,Netherlands,52.633821141684216,4.748795180584206,52.0878,4.3023,67.86386888670229
imgs_final_v1/380.jpg,"{""lat"": 48.1731, ""long"": 11.5732, ""city"": ""Z�rich"", ""country"": ""Switzerland""}",Tübingen,Germany,Z�rich,Switzerland,48.519596546372746,9.05496037327105,48.1731,11.5732,190.04245774112132
imgs_final_v1/381.jpg,"{""lat"": 50.0878, ""long"": 13.3932, ""city"": ""Wrocław"", ""country"": ""Poland""}",Frankfurt (Oder),Germany,Wrocław,Poland,52.342489686498965,14.553425666338166,50.0878,13.3932,263.40324748741784
imgs_final_v1/382.jpg,"{""lat"": 55.7628, ""long"": 37.6153, ""city"": ""New York"", ""country"": ""USA""}",Deva,Romania,New York,USA,45.87826018788203,22.913217042165662,55.7628,37.6153,1502.18669631868
imgs_final_v1/383.jpg,"{""lat"": 55.7878, ""long"": 37.6212, ""city"": ""New York"", ""country"": ""USA""}",Gatchina,Russia,New York,USA,59.58361352493736,30.13079233680256,55.7878,37.6212,612.8329385154321
imgs_final_v1/384.jpg,"{""lat"": 41.8781, ""long"": 12.5165, ""city"": ""Paris"", ""country"": ""France""}",Włocławek,Poland,Paris,France,52.65947637478153,19.066046591705227,41.8781,12.5165,1295.3810807731866
imgs_final_v1/385.jpg,"{""lat"": 37.7749, ""long"": -122.4194, ""city"": ""San Francisco"", ""country"": ""USA""}",Mikhaylovsk,Russia,San Francisco,USA,45.1334782177417,42.03224853520695,37.7749,-122.4194,10665.245053509876
imgs_final_v1/386.jpg,"{""lat"": 53.0378, ""long"": 24.0032, ""city"": ""Kiev"", ""country"": ""Ukraine""}",Voskresensk,Russia,Kiev,Ukraine,55.31762106421387,38.70127737405544,53.0378,24.0032,987.482415504308
imgs_final_v1/387.jpg,"{""lat"": 48.8566, ""long"": 2.3522, ""city"": ""Paris"", ""country"": ""France""}",Eger,Hungary,Paris,France,47.89820053574554,20.37502802654604,48.8566,2.3522,1332.247012541059
imgs_final_v1/388.jpg,"{""lat"": 48.8566, ""long"": 2.3522, ""city"": ""Paris"", ""country"": ""France""}",Satu Mare,Romania,Paris,France,47.7899539876119,22.89041254227919,48.8566,2.3522,1518.5004562991314
imgs_final_v1/389.jpg,"{""lat"": 53.5378, ""long"": 24.6722, ""city"": ""Kiev"", ""country"": ""Ukraine""}",Almetyevsk,Russia,Kiev,Ukraine,54.89899650882264,52.30168521119812,53.5378,24.6722,1790.9384595157703
imgs_final_v1/390.jpg,"{""lat"": 51.5085, ""long"": -0.1278, ""city"": ""London"", ""country"": ""United Kingdom""}",Beveren,Belgium,London,United Kingdom,51.20061974510586,4.251632142221929,51.5085,-0.1278,305.9867002025287
imgs_final_v1/391.jpg,"{""lat"": 52.5218, ""long"": 21.0532, ""city"": ""Berlin"", ""country"": ""Germany""}",Târgu Jiu,Romania,Berlin,Germany,45.03353724575359,23.27370562991791,52.5218,21.0532,848.2950345203959
imgs_final_v1/392.jpg,"{""lat"": 52.2378, ""long"": -0.1253, ""city"": ""Bury St Edmunds"", ""country"": ""United Kingdom""}",Guildford,United Kingdom,Bury St Edmunds,United Kingdom,51.23581031383869,-0.5680854225510544,52.2378,-0.1253,115.5122521163095
imgs_final_v1/393.jpg,"{""lat"": 51.5085, ""long"": -0.1278, ""city"": ""London"", ""country"": ""United Kingdom""}",Hoofddorp,Netherlands,London,United Kingdom,52.30468652838773,4.691099073041214,51.5085,-0.1278,342.158216241434
imgs_final_v1/394.jpg,"{""lat"": 53.5378, ""long"": -2.0823, ""city"": ""Bramley"", ""country"": ""United Kingdom""}",Dunfermline,United Kingdom,Bramley,United Kingdom,56.0729767343004,-3.438873908821066,53.5378,-2.0823,294.98568951850245
imgs_final_v1/395.jpg,"{""lat"": 40.7128, ""long"": -74.0060, ""city"": ""New York"", ""country"": ""United States""}",Salerno,Italy,New York,United States,40.68091156322444,14.75883939393532,40.7128,-74.006,7122.161255058514
imgs_final_v1/396.jpg,"{""lat"": 53.5378, ""long"": -0.0923, ""city"": ""Leeds"", ""country"": ""United Kingdom""}",Macclesfield,United Kingdom,Leeds,United Kingdom,53.250600757319766,-2.12825397083128,53.5378,-0.0923,138.71697344298386
imgs_final_v1/397.jpg,"{""lat"": 40.7128, ""long"": -74.0060, ""city"": ""New York"", ""country"": ""USA""}",Yambol,Bulgaria,New York,USA,42.4830176070563,26.49850289317325,40.7128,-74.006,7806.747521480335
imgs_final_v1/398.jpg,"{""lat"": 53.8078, ""long"": -2.0853, ""city"": ""Bingley"", ""country"": ""United Kingdom""}",Royal Tunbridge Wells,United Kingdom,Bingley,United Kingdom,51.13255328966021,0.2617971831640575,53.8078,-2.0853,337.24906725886507
imgs_final_v1/399.jpg,"{""lat"": 37.0378, ""long"": -122.0833, ""city"": ""San Jose"", ""country"": ""Costa Rica""}",Urus-Martan,Russia,San Jose,Costa Rica,43.13248782119776,45.54954356583971,37.0378,-122.0833,11013.25478318962
imgs_final_v1/400.jpg,"{""lat"": 38.000000, ""long"": 2.000000, ""city"": ""Barcelona"", ""country"": ""Spain""}",Sérres,Greece,Barcelona,Spain,41.08386973284146,23.551506990960554,38.0,2.0,1874.519594086251
imgs_final_v1/401.jpg,"{""lat"": 55.7628, ""long"": 37.6122, ""city"": ""New York"", ""country"": ""USA""}",Reutov,Russia,New York,USA,55.76225335514152,37.85511949153294,55.7628,37.6122,15.197389434306894
imgs_final_v1/402.jpg,"{""lat"": 35.2878, ""long"": 26.0032, ""city"": ""Athens"", ""country"": ""Greece""}",Kavála,Greece,Athens,Greece,40.93349114614652,24.401911600449832,35.2878,26.0032,643.1792361028602
imgs_final_v1/403.jpg,"{""lat"": 53.9378, ""long"": 24.0032, ""city"": ""Kiev"", ""country"": ""Ukraine""}",Tobolsk,Russia,Kiev,Ukraine,58.19925064723861,68.26546817966923,53.9378,24.0032,2736.1901706209846
imgs_final_v1/404.jpg,"{""lat"": 40.7128, ""long"": -74.0060, ""city"": ""New York"", ""country"": ""United States""}",Champigny-sur-Marne,France,New York,United States,48.81633735130415,2.517472269261244,40.7128,-74.006,5850.134357713675
imgs_final_v1/405.jpg,"{""lat"": 40.7128, ""long"": -74.0060, ""city"": ""New York"", ""country"": ""United States""}",Durrës,Albania,New York,United States,41.31404956993962,19.4450133998963,40.7128,-74.006,7411.139141560301
imgs_final_v1/406.jpg,"{""lat"": 43.6028, ""long"": 2.3522, ""city"": ""Paris"", ""country"": ""France""}",Aix-en-Provence,France,Paris,France,43.526839297927125,5.445285214919768,43.6028,2.3522,249.34257340784785
imgs_final_v1/407.jpg,"{""lat"": 41.8781, ""long"": 12.5166, ""city"": ""Rome"", ""country"": ""Italy""}",San Remo,Italy,Rome,Italy,43.81729679337381,7.773285610630422,41.8781,12.5166,442.64863525062384
imgs_final_v1/408.jpg,"{""lat"": 37.7749, ""long"": -122.4194, ""city"": ""San Francisco"", ""country"": ""USA""}",Braga,Portugal,San Francisco,USA,41.5509453460911,-8.420529415634185,37.7749,-122.4194,8946.860033265406
imgs_final_v1/409.jpg,"{""lat"": 51.5085, ""long"": -0.1278, ""city"": ""London"", ""country"": ""United Kingdom""}",Hamm,Germany,London,United Kingdom,51.6653341258352,7.817869374019571,51.5085,-0.1278,548.9592629532652
imgs_final_v1/410.jpg,"{""lat"": 51.5084, ""long"": -0.1278, ""city"": ""London"", ""country"": ""United Kingdom""}",Moortebeek,Belgium,London,United Kingdom,50.85511929238121,4.338278246195022,51.5084,-0.1278,319.6052041846071
imgs_final_v1/411.jpg,"{""lat"": 37.7749, ""long"": -122.4194, ""city"": ""San Francisco"", ""country"": ""USA""}",Molina de Segura,Spain,San Francisco,USA,38.05446747545647,-1.2146044421857138,37.7749,-122.4194,9656.166291524776
imgs_final_v1/412.jpg,"{""lat"": 40.7128, ""long"": -74.0060, ""city"": ""New York"", ""country"": ""United States""}",Santo Tirso,Portugal,New York,United States,41.33376781406276,-8.46578022570903,40.7128,-74.006,5360.321228910815
imgs_final_v1/413.jpg,"{""lat"": 38.000000, ""long"": -4.000000, ""city"": ""Barcelona"", ""country"": ""Spain""}",La Laguna,Spain,Barcelona,Spain,28.486480756779542,-16.317856331998257,38.0,-4.0,1556.5574085370536
imgs_final_v1/414.jpg,"{""lat"": 50.0878, ""long"": 17.0633, ""city"": ""Prague"", ""country"": ""Czech Republic""}",Wałbrzych,Poland,Prague,Czech Republic,50.766646182996176,16.281747231538144,50.0878,17.0633,93.60955039774538
imgs_final_v1/415.jpg,"{""lat"": -10.0, ""long"": -70.0, ""city"": ""São Paulo"", ""country"": ""Brazil""}",Bayeux,Brazil,São Paulo,Brazil,-7.133498867511411,-34.933069692750216,-10.0,-70.0,3867.100167439236
imgs_final_v1/416.jpg,"{""lat"": 38.9052, ""long"": -0.1048, ""city"": ""Lisbon"", ""country"": ""Portugal""}",Ponta Delgada,Portugal,Lisbon,Portugal,37.74050614885012,-25.680469456023943,38.9052,-0.1048,2227.563690026628
imgs_final_v1/417.jpg,"{""lat"": 51.5085, ""long"": -0.1278, ""city"": ""London"", ""country"": ""United Kingdom""}",Offenburg,Germany,London,United Kingdom,48.46814878778338,7.932663213454801,51.5085,-0.1278,667.5598566899124
imgs_final_v1/418.jpg,"{""lat"": 50.8566, ""long"": 13.3732, ""city"": ""Berlin"", ""country"": ""Germany""}",Leverkusen,Germany,Berlin,Germany,51.03369336121333,6.983418616817192,50.8566,13.3732,447.9597453394629
imgs_final_v1/419.jpg,"{""lat"": 52.5235, ""long"": 13.4083, ""city"": ""Berlin"", ""country"": ""Germany""}",Örebro,Sweden,Berlin,Germany,59.27455256292704,15.207098405401142,52.5235,13.4083,758.9397366780127
imgs_final_v1/420.jpg,"{""lat"": 37.7749, ""long"": -122.4194, ""city"": ""San Francisco"", ""country"": ""USA""}",La Línea de la Concepción,Spain,San Francisco,USA,36.16903482779159,-5.349359993976615,37.7749,-122.4194,9553.978618272107
imgs_final_v1/421.jpg,"{""lat"": 48.5378, ""long"": 12.3456, ""city"": ""London"", ""country"": ""United Kingdom""}",Valjevo,Serbia,London,United Kingdom,44.26614754114016,19.884144806313227,48.5378,12.3456,747.5527426216772
imgs_final_v1/422.jpg,"{""lat"": -23.562, ""long"": -48.902, ""city"": ""São Paulo"", ""country"": ""Brazil""}",Umán,Mexico,São Paulo,Brazil,20.883305319588708,-89.74857237502638,-23.562,-48.902,6632.256210415992
imgs_final_v1/423.jpg,"{""lat"": 37.6875, ""long"": -122.4125, ""city"": ""San Francisco"", ""country"": ""USA""}",Roquetas de Mar,Spain,San Francisco,USA,36.76390352836302,-2.6131895484142813,37.6875,-122.4125,9683.432937087457
imgs_final_v1/424.jpg,"{""lat"": 51.50841, ""long"": -0.1278, ""city"": ""London"", ""country"": ""United Kingdom""}",Blackburn,United Kingdom,London,United Kingdom,53.7473184724866,-2.4842160119865726,51.50841,-0.1278,295.3841278738535
imgs_final_v1/425.jpg,"{""lat"": 51.5084, ""long"": -0.1278, ""city"": ""London"", ""country"": ""United Kingdom""}",Slough,United Kingdom,London,United Kingdom,51.50927041096863,-0.5897887371923604,51.5084,-0.1278,31.9729707985062
imgs_final_v1/426.jpg,"{""lat"": 47.5675, ""long"": 12.3456, ""city"": ""Z�rich"", ""country"": ""Switzerland""}",Passau,Germany,Z�rich,Switzerland,48.57542712454653,13.463052377625784,47.5675,12.3456,139.4766633976889
imgs_final_v1/427.jpg,"{""lat"": 48.8588, ""long"": 2.3522, ""city"": ""Paris"", ""country"": ""France""}",Vaasa,Finland,Paris,France,63.099684921666096,21.61637851681708,48.8588,2.3522,1969.3779981420412
imgs_final_v1/428.jpg,"{""lat"": 51.5084, ""long"": -0.1278, ""city"": ""London"", ""country"": ""United Kingdom""}",Aylesbury,United Kingdom,London,United Kingdom,51.81821035037176,-0.8113252504074151,51.5084,-0.1278,58.38909133390183
imgs_final_v1/429.jpg,"{""lat"": 51.5085, ""long"": -0.1278, ""city"": ""London"", ""country"": ""United Kingdom""}",Frechen,Germany,London,United Kingdom,50.91724707491978,6.815386518754975,51.5085,-0.1278,487.89035803183
imgs_final_v1/430.jpg,"{""lat"": 55.7875, ""long"": 37.6532, ""city"": ""New York"", ""country"": ""USA""}",Sarapul,Russia,New York,USA,56.46752632694016,53.80171939370607,55.7875,37.6532,1001.316610084918
imgs_final_v1/431.jpg,"{""lat"": 51.5085, ""long"": -0.1278, ""city"": ""London"", ""country"": ""United Kingdom""}",Houten,Netherlands,London,United Kingdom,52.032861174706525,5.166505588435632,51.5085,-0.1278,368.84389553768506
imgs_final_v1/432.jpg,"{""lat"": 55.8583, ""long"": 37.6532, ""city"": ""New York"", ""country"": ""United States""}",Borovichi,Russia,New York,United States,58.40117544796915,33.91564075911943,55.8583,37.6532,361.58945468221424
imgs_final_v1/433.jpg,"{""lat"": 40.7128, ""long"": -74.0060, ""city"": ""New York"", ""country"": ""United States""}",Maykop,Russia,New York,United States,44.59991067372777,40.08420356745194,40.7128,-74.006,8478.547526233591
imgs_final_v1/434.jpg,"{""lat"": 52.5185, ""long"": 13.4032, ""city"": ""Berlin"", ""country"": ""Germany""}",Bytom,Poland,Berlin,Germany,50.349085939492426,18.91764280876157,52.5185,13.4032,451.82939678312965
imgs_final_v1/435.jpg,"{""lat"": 37.7749, ""long"": -122.4194, ""city"": ""San Francisco"", ""country"": ""USA""}",Zamora,Spain,San Francisco,USA,41.499641247517786,-5.7555674468524485,37.7749,-122.4194,9111.1752566679
imgs_final_v1/436.jpg,"{""lat"": 40.7128, ""long"": -74.0060, ""city"": ""New York"", ""country"": ""United States""}",Pula,Croatia,New York,United States,44.86932496349726,13.844565467237308,40.7128,-74.006,6815.5624941293145
imgs_final_v1/437.jpg,"{""lat"": 48.8582, ""long"": 2.3522, ""city"": ""Paris"", ""country"": ""France""}",Aalen,Germany,Paris,France,48.83337095089605,10.101368748640915,48.8582,2.3522,566.8150474348253
imgs_final_v1/438.jpg,"{""lat"": 51.8974, ""long"": 4.8963, ""city"": ""Amsterdam"", ""country"": ""Netherlands""}",Woerden,Netherlands,Amsterdam,Netherlands,52.08334883287354,4.883772211928758,51.8974,4.8963,20.694353392645183
imgs_final_v1/439.jpg,"{""lat"": 37.0428, ""long"": -122.4194, ""city"": ""San Francisco"", ""country"": ""United States""}",Utrera,Spain,San Francisco,United States,37.18185057003068,-5.765739021071939,37.0428,-122.4194,9505.05911107763
imgs_final_v1/440.jpg,"{""lat"": 48.8566, ""long"": 2.3522, ""city"": ""Paris"", ""country"": ""France""}",Stargard Szczeciński,Poland,Paris,France,53.33397706521017,15.034757062813377,48.8566,2.3522,1013.949396739827
imgs_final_v1/441.jpg,"{""lat"": 53.4178, ""long"": -2.2423, ""city"": ""Manchester"", ""country"": ""United Kingdom""}",Wigan,United Kingdom,Manchester,United Kingdom,53.54634526366375,-2.63159329236404,53.4178,-2.2423,29.45915032050226
imgs_final_v1/442.jpg,"{""lat"": 52.22783, ""long"": 4.89323, ""city"": ""Amsterdam"", ""country"": ""Netherlands""}",Leiden,Netherlands,Amsterdam,Netherlands,52.15982293888871,4.488640161819002,52.22783,4.89323,28.595461455547326
imgs_final_v1/443.jpg,"{""lat"": 40.7128, ""long"": -74.0060, ""city"": ""New York"", ""country"": ""USA""}",Kumanovo,North Macedonia,New York,USA,42.13310880210541,21.714163759607377,40.7128,-74.006,7513.463041168738
imgs_final_v1/444.jpg,"{""lat"": 40.7128, ""long"": -74.0060, ""city"": ""New York"", ""country"": ""United States""}",Paredes,Portugal,New York,United States,41.20571235473624,-8.334923066300632,40.7128,-74.006,5375.849959190832
imgs_final_v1/445.jpg,"{""lat"": -23.537, ""long"": -48.902, ""city"": ""São Paulo"", ""country"": ""Brazil""}",Zapopan,Mexico,São Paulo,Brazil,20.715470014909705,-103.3994632296266,-23.537,-48.902,7683.534880322784
imgs_final_v1/446.jpg,"{""lat"": 40.7128, ""long"": -73.9984, ""city"": ""New York"", ""country"": ""USA""}",Bronx,United States,New York,USA,40.85070479327724,-73.86721535154702,40.7128,-73.9984,18.898180232729096
imgs_final_v1/447.jpg,"{""lat"": 48.8585, ""long"": 2.3522, ""city"": ""Paris"", ""country"": ""France""}",Amsterdam,Netherlands,Paris,France,52.37228992364062,4.8917097512287295,48.8585,2.3522,429.7732721796869
imgs_final_v1/448.jpg,"{""lat"": 39.0922, ""long"": -75.1633, ""city"": ""Philadelphia"", ""country"": ""USA""}",Virginia Beach,United States,Philadelphia,USA,36.7340832692951,-76.04449257609532,39.0922,-75.1633,273.36400723835874
imgs_final_v1/449.jpg,"{""lat"": 40.7128, ""long"": -74.0060, ""city"": ""New York"", ""country"": ""USA""}",Charlotte,United States,New York,USA,35.20736489658522,-80.82884351363539,40.7128,-74.006,855.3473732088223
imgs_final_v1/450.jpg,"{""lat"": 41.8611, ""long"": 12.5169, ""city"": ""Vienna"", ""country"": ""Austria""}",Milan,Italy,Vienna,Austria,45.466622301402666,9.190886033683975,41.8611,12.5169,481.88536836999685
imgs_final_v1/451.jpg,"{""lat"": 34.0522, ""long"": -118.2437, ""city"": ""Los Angeles"", ""country"": ""USA""}",Santiago,Chile,Los Angeles,USA,19.45657504603784,-70.68891633300758,34.0522,-118.2437,4943.6866976340125
imgs_final_v1/452.jpg,"{""lat"": 37.7749, ""long"": -122.4194, ""city"": ""San Francisco"", ""country"": ""USA""}",Juárez,Mexico,San Francisco,USA,31.74520556378576,-106.48590437303756,37.7749,-122.4194,1599.6640392177692
imgs_final_v1/453.jpg,"{""lat"": 39.7375, ""long"": -122.4194, ""city"": ""San Francisco"", ""country"": ""USA""}",Calgary,Canada,San Francisco,USA,51.05088129550486,-114.06525456320382,39.7375,-122.4194,1414.9293600217352
imgs_final_v1/454.jpg,"{""lat"": 41.8781, ""long"": -87.6298, ""city"": ""Chicago"", ""country"": ""USA""}",Milwaukee,United States,Chicago,USA,43.06411398630492,-87.96733321785723,41.8781,-87.6298,134.7528211124642
imgs_final_v1/455.jpg,"{""lat"": 40.7128, ""long"": -74.0060, ""city"": ""New York"", ""country"": ""USA""}",Providence,United States,New York,USA,41.82263855373175,-71.42031483045976,40.7128,-74.006,248.84419767065
